{
"type": "FeatureCollection",
"crs": { "type": "name", "properties": { "name": "urn:ogc:def:crs:OGC:1.3:CRS84" } },
"features": [
{ "type": "Feature", "properties": { "id": 30999260, "lat": 39.471011, "lon": -0.3818602, "nombre": "Ni pa ti ni pa mi", "tipo": "cafe" }, "geometry": { "type": "Point", "coordinates": [ -0.3818602, 39.471011 ] } },
{ "type": "Feature", "properties": { "id": 30999262, "lat": 39.4709045, "lon": -0.381409, "nombre": "Poquito a poco", "tipo": "cafe" }, "geometry": { "type": "Point", "coordinates": [ -0.381409, 39.4709045 ] } },
{ "type": "Feature", "properties": { "id": 31023735, "lat": 39.4711826, "lon": -0.3803981, "nombre": "Cervecería Velluters", "tipo": "cafe" }, "geometry": { "type": "Point", "coordinates": [ -0.3803981, 39.4711826 ] } },
{ "type": "Feature", "properties": { "id": 31023736, "lat": 39.4709675, "lon": -0.3808791, "nombre": "Café Santos", "tipo": "cafe" }, "geometry": { "type": "Point", "coordinates": [ -0.3808791, 39.4709675 ] } },
{ "type": "Feature", "properties": { "id": 31023737, "lat": 39.4710138, "lon": -0.3806733, "nombre": "Black Bear", "tipo": "bar" }, "geometry": { "type": "Point", "coordinates": [ -0.3806733, 39.4710138 ] } },
{ "type": "Feature", "properties": { "id": 31023742, "lat": 39.4708998, "lon": -0.3812193, "nombre": "La Masía del Vino", "tipo": "restaurant" }, "geometry": { "type": "Point", "coordinates": [ -0.3812193, 39.4708998 ] } },
{ "type": "Feature", "properties": { "id": 31023743, "lat": 39.470892, "lon": -0.3830845, "nombre": "Aladino", "tipo": "restaurant" }, "geometry": { "type": "Point", "coordinates": [ -0.3830845, 39.470892 ] } },
{ "type": "Feature", "properties": { "id": 31023744, "lat": 39.4723522, "lon": -0.381146, "nombre": "Bar Victoria", "tipo": "cafe" }, "geometry": { "type": "Point", "coordinates": [ -0.381146, 39.4723522 ] } },
{ "type": "Feature", "properties": { "id": 90347288, "lat": 39.4749557, "lon": -0.3648781, "nombre": "Sin nombre", "tipo": "pharmacy" }, "geometry": { "type": "Point", "coordinates": [ -0.3648781, 39.4749557 ] } },
{ "type": "Feature", "properties": { "id": 90348378, "lat": 39.4779714, "lon": -0.3631469, "nombre": "Sin nombre", "tipo": "pharmacy" }, "geometry": { "type": "Point", "coordinates": [ -0.3631469, 39.4779714 ] } },
{ "type": "Feature", "properties": { "id": 104667715, "lat": 39.4770984, "lon": -0.3632878, "nombre": "Foster's Hollywood", "tipo": "restaurant" }, "geometry": { "type": "Point", "coordinates": [ -0.3632878, 39.4770984 ] } },
{ "type": "Feature", "properties": { "id": 105865399, "lat": 39.4951529, "lon": -0.3964149, "nombre": "Farmacia del Treda", "tipo": "pharmacy" }, "geometry": { "type": "Point", "coordinates": [ -0.3964149, 39.4951529 ] } },
{ "type": "Feature", "properties": { "id": 106329151, "lat": 39.451077, "lon": -0.4031014, "nombre": "Farmacia Castejon", "tipo": "pharmacy" }, "geometry": { "type": "Point", "coordinates": [ -0.4031014, 39.451077 ] } },
{ "type": "Feature", "properties": { "id": 106332574, "lat": 39.453284, "lon": -0.403113, "nombre": "Sin nombre", "tipo": "pharmacy" }, "geometry": { "type": "Point", "coordinates": [ -0.403113, 39.453284 ] } },
{ "type": "Feature", "properties": { "id": 106914618, "lat": 39.4520975, "lon": -0.3739486, "nombre": "Casa Manolo", "tipo": "restaurant" }, "geometry": { "type": "Point", "coordinates": [ -0.3739486, 39.4520975 ] } },
{ "type": "Feature", "properties": { "id": 106914626, "lat": 39.4508285, "lon": -0.3732921, "nombre": "Casa Tere", "tipo": "restaurant" }, "geometry": { "type": "Point", "coordinates": [ -0.3732921, 39.4508285 ] } },
{ "type": "Feature", "properties": { "id": 106914630, "lat": 39.4505895, "lon": -0.3730823, "nombre": "Sin nombre", "tipo": "restaurant" }, "geometry": { "type": "Point", "coordinates": [ -0.3730823, 39.4505895 ] } },
{ "type": "Feature", "properties": { "id": 106914644, "lat": 39.4510699, "lon": -0.3720946, "nombre": "Nuevo Siglo", "tipo": "restaurant" }, "geometry": { "type": "Point", "coordinates": [ -0.3720946, 39.4510699 ] } },
{ "type": "Feature", "properties": { "id": 106914680, "lat": 39.4530108, "lon": -0.3743822, "nombre": "Banco Santander", "tipo": "bank" }, "geometry": { "type": "Point", "coordinates": [ -0.3743822, 39.4530108 ] } },
{ "type": "Feature", "properties": { "id": 106914688, "lat": 39.4530454, "lon": -0.374966, "nombre": "Caixabank", "tipo": "bank" }, "geometry": { "type": "Point", "coordinates": [ -0.374966, 39.4530454 ] } },
{ "type": "Feature", "properties": { "id": 106914705, "lat": 39.4543131, "lon": -0.3766905, "nombre": "Farmacia Vidal Simeón", "tipo": "pharmacy" }, "geometry": { "type": "Point", "coordinates": [ -0.3766905, 39.4543131 ] } },
{ "type": "Feature", "properties": { "id": 107394279, "lat": 39.4534251, "lon": -0.371659, "nombre": "Sin nombre", "tipo": "pharmacy" }, "geometry": { "type": "Point", "coordinates": [ -0.371659, 39.4534251 ] } },
{ "type": "Feature", "properties": { "id": 107931095, "lat": 39.4482747, "lon": -0.3678884, "nombre": "Bar San Luís", "tipo": "restaurant" }, "geometry": { "type": "Point", "coordinates": [ -0.3678884, 39.4482747 ] } },
{ "type": "Feature", "properties": { "id": 108539099, "lat": 39.4522707, "lon": -0.372097, "nombre": "Sin nombre", "tipo": "pharmacy" }, "geometry": { "type": "Point", "coordinates": [ -0.372097, 39.4522707 ] } },
{ "type": "Feature", "properties": { "id": 109552702, "lat": 39.4849007, "lon": -0.3379912, "nombre": "El Famós", "tipo": "restaurant" }, "geometry": { "type": "Point", "coordinates": [ -0.3379912, 39.4849007 ] } },
{ "type": "Feature", "properties": { "id": 115533027, "lat": 39.4955817, "lon": -0.4016255, "nombre": "Yashi Wok", "tipo": "restaurant" }, "geometry": { "type": "Point", "coordinates": [ -0.4016255, 39.4955817 ] } },
{ "type": "Feature", "properties": { "id": 116137697, "lat": 39.4574659, "lon": -0.3925277, "nombre": "Sin nombre", "tipo": "pharmacy" }, "geometry": { "type": "Point", "coordinates": [ -0.3925277, 39.4574659 ] } },
{ "type": "Feature", "properties": { "id": 164123074, "lat": 39.4748253, "lon": -0.3822345, "nombre": "Gilda", "tipo": "bar" }, "geometry": { "type": "Point", "coordinates": [ -0.3822345, 39.4748253 ] } },
{ "type": "Feature", "properties": { "id": 164123451, "lat": 39.4742601, "lon": -0.3812275, "nombre": "DJango", "tipo": "restaurant" }, "geometry": { "type": "Point", "coordinates": [ -0.3812275, 39.4742601 ] } },
{ "type": "Feature", "properties": { "id": 197384403, "lat": 39.4737322, "lon": -0.3818644, "nombre": "Bipolar", "tipo": "restaurant" }, "geometry": { "type": "Point", "coordinates": [ -0.3818644, 39.4737322 ] } },
{ "type": "Feature", "properties": { "id": 197384418, "lat": 39.4727638, "lon": -0.3836713, "nombre": "Café Bar Almansa", "tipo": "cafe" }, "geometry": { "type": "Point", "coordinates": [ -0.3836713, 39.4727638 ] } },
{ "type": "Feature", "properties": { "id": 197384422, "lat": 39.4736866, "lon": -0.3836668, "nombre": "Sin nombre", "tipo": "pharmacy" }, "geometry": { "type": "Point", "coordinates": [ -0.3836668, 39.4736866 ] } },
{ "type": "Feature", "properties": { "id": 197384424, "lat": 39.4737971, "lon": -0.3836228, "nombre": "Café Clasic", "tipo": "cafe" }, "geometry": { "type": "Point", "coordinates": [ -0.3836228, 39.4737971 ] } },
{ "type": "Feature", "properties": { "id": 197384433, "lat": 39.4739405, "lon": -0.3834497, "nombre": "Horno de la Encarnación", "tipo": "bakery" }, "geometry": { "type": "Point", "coordinates": [ -0.3834497, 39.4739405 ] } },
{ "type": "Feature", "properties": { "id": 197384457, "lat": 39.4746657, "lon": -0.3835167, "nombre": "Restaurante Aldaba", "tipo": "restaurant" }, "geometry": { "type": "Point", "coordinates": [ -0.3835167, 39.4746657 ] } },
{ "type": "Feature", "properties": { "id": 197384458, "lat": 39.4753554, "lon": -0.3830892, "nombre": "Unsushi", "tipo": "restaurant" }, "geometry": { "type": "Point", "coordinates": [ -0.3830892, 39.4753554 ] } },
{ "type": "Feature", "properties": { "id": 197384467, "lat": 39.4758321, "lon": -0.3830933, "nombre": "Canela Arroces", "tipo": "restaurant" }, "geometry": { "type": "Point", "coordinates": [ -0.3830933, 39.4758321 ] } },
{ "type": "Feature", "properties": { "id": 203671767, "lat": 39.4743828, "lon": -0.381215, "nombre": "Bar Jesús", "tipo": "cafe" }, "geometry": { "type": "Point", "coordinates": [ -0.381215, 39.4743828 ] } },
{ "type": "Feature", "properties": { "id": 203671779, "lat": 39.4742592, "lon": -0.3808255, "nombre": "Dhaba", "tipo": "restaurant" }, "geometry": { "type": "Point", "coordinates": [ -0.3808255, 39.4742592 ] } },
{ "type": "Feature", "properties": { "id": 203671814, "lat": 39.4733399, "lon": -0.3811324, "nombre": "Café Coral", "tipo": "cafe" }, "geometry": { "type": "Point", "coordinates": [ -0.3811324, 39.4733399 ] } },
{ "type": "Feature", "properties": { "id": 203671818, "lat": 39.4730281, "lon": -0.3812564, "nombre": "Bar els Cremats", "tipo": "cafe" }, "geometry": { "type": "Point", "coordinates": [ -0.3812564, 39.4730281 ] } },
{ "type": "Feature", "properties": { "id": 203671827, "lat": 39.4727981, "lon": -0.3808783, "nombre": "Farmacia Amparo Hortiguela", "tipo": "pharmacy" }, "geometry": { "type": "Point", "coordinates": [ -0.3808783, 39.4727981 ] } },
{ "type": "Feature", "properties": { "id": 203671839, "lat": 39.472622, "lon": -0.3813848, "nombre": "Forn Desamparats", "tipo": "bakery" }, "geometry": { "type": "Point", "coordinates": [ -0.3813848, 39.472622 ] } },
{ "type": "Feature", "properties": { "id": 221230692, "lat": 39.4718839, "lon": -0.3792638, "nombre": "La més cabuda", "tipo": "cafe" }, "geometry": { "type": "Point", "coordinates": [ -0.3792638, 39.4718839 ] } },
{ "type": "Feature", "properties": { "id": 248923961, "lat": 39.4844852, "lon": -0.4009881, "nombre": "Sin nombre", "tipo": "pharmacy" }, "geometry": { "type": "Point", "coordinates": [ -0.4009881, 39.4844852 ] } },
{ "type": "Feature", "properties": { "id": 316565938, "lat": 39.4777599, "lon": -0.375785, "nombre": "Las Cuevas", "tipo": "restaurant" }, "geometry": { "type": "Point", "coordinates": [ -0.375785, 39.4777599 ] } },
{ "type": "Feature", "properties": { "id": 316744333, "lat": 39.4775749, "lon": -0.3555903, "nombre": "Bar Pekin", "tipo": "restaurant" }, "geometry": { "type": "Point", "coordinates": [ -0.3555903, 39.4775749 ] } },
{ "type": "Feature", "properties": { "id": 343720566, "lat": 39.4846601, "lon": -0.3625616, "nombre": "Farmacia 24 horas Benimaclet", "tipo": "pharmacy" }, "geometry": { "type": "Point", "coordinates": [ -0.3625616, 39.4846601 ] } },
{ "type": "Feature", "properties": { "id": 365242573, "lat": 39.4709819, "lon": -0.3825655, "nombre": "Elena Roig Giménez", "tipo": "pharmacy" }, "geometry": { "type": "Point", "coordinates": [ -0.3825655, 39.4709819 ] } },
{ "type": "Feature", "properties": { "id": 365242574, "lat": 39.4704309, "lon": -0.3846727, "nombre": "Ti amo café", "tipo": "cafe" }, "geometry": { "type": "Point", "coordinates": [ -0.3846727, 39.4704309 ] } },
{ "type": "Feature", "properties": { "id": 365242575, "lat": 39.4705634, "lon": -0.3848283, "nombre": "Calabuig Reyes C.B.", "tipo": "pharmacy" }, "geometry": { "type": "Point", "coordinates": [ -0.3848283, 39.4705634 ] } },
{ "type": "Feature", "properties": { "id": 365242577, "lat": 39.4708155, "lon": -0.3857276, "nombre": "Caixabank", "tipo": "bank" }, "geometry": { "type": "Point", "coordinates": [ -0.3857276, 39.4708155 ] } },
{ "type": "Feature", "properties": { "id": 365519623, "lat": 39.4702672, "lon": -0.3841466, "nombre": "Bar Jesus", "tipo": "cafe" }, "geometry": { "type": "Point", "coordinates": [ -0.3841466, 39.4702672 ] } },
{ "type": "Feature", "properties": { "id": 365519624, "lat": 39.4702868, "lon": -0.3839154, "nombre": "Eras Pan", "tipo": "bakery" }, "geometry": { "type": "Point", "coordinates": [ -0.3839154, 39.4702868 ] } },
{ "type": "Feature", "properties": { "id": 365519626, "lat": 39.470194, "lon": -0.3837139, "nombre": "Pegaso", "tipo": "restaurant" }, "geometry": { "type": "Point", "coordinates": [ -0.3837139, 39.470194 ] } },
{ "type": "Feature", "properties": { "id": 431064243, "lat": 39.4728924, "lon": -0.3799646, "nombre": "Banco Santander", "tipo": "bank" }, "geometry": { "type": "Point", "coordinates": [ -0.3799646, 39.4728924 ] } },
{ "type": "Feature", "properties": { "id": 447040113, "lat": 39.5462512, "lon": -0.386134, "nombre": "Restaurante Intos", "tipo": "restaurant" }, "geometry": { "type": "Point", "coordinates": [ -0.386134, 39.5462512 ] } },
{ "type": "Feature", "properties": { "id": 447040115, "lat": 39.5453175, "lon": -0.3851696, "nombre": "Ca Màxim", "tipo": "restaurant" }, "geometry": { "type": "Point", "coordinates": [ -0.3851696, 39.5453175 ] } },
{ "type": "Feature", "properties": { "id": 447040120, "lat": 39.5461631, "lon": -0.3880163, "nombre": "Bar Tapate", "tipo": "cafe" }, "geometry": { "type": "Point", "coordinates": [ -0.3880163, 39.5461631 ] } },
{ "type": "Feature", "properties": { "id": 447040121, "lat": 39.5477791, "lon": -0.3886699, "nombre": "Cafetería Chigal", "tipo": "cafe" }, "geometry": { "type": "Point", "coordinates": [ -0.3886699, 39.5477791 ] } },
{ "type": "Feature", "properties": { "id": 447040123, "lat": 39.5481555, "lon": -0.3885052, "nombre": "Restaurant Les Arts", "tipo": "restaurant" }, "geometry": { "type": "Point", "coordinates": [ -0.3885052, 39.5481555 ] } },
{ "type": "Feature", "properties": { "id": 447040124, "lat": 39.5484257, "lon": -0.3883345, "nombre": "Horno Cafetería Paiven", "tipo": "cafe" }, "geometry": { "type": "Point", "coordinates": [ -0.3883345, 39.5484257 ] } },
{ "type": "Feature", "properties": { "id": 447835915, "lat": 39.5446329, "lon": -0.3850293, "nombre": "Caixabank", "tipo": "bank" }, "geometry": { "type": "Point", "coordinates": [ -0.3850293, 39.5446329 ] } },
{ "type": "Feature", "properties": { "id": 447835918, "lat": 39.5429834, "lon": -0.3870116, "nombre": "Campanaris", "tipo": "restaurant" }, "geometry": { "type": "Point", "coordinates": [ -0.3870116, 39.5429834 ] } },
{ "type": "Feature", "properties": { "id": 447835929, "lat": 39.5452824, "lon": -0.3849201, "nombre": "Bar Alfara", "tipo": "cafe" }, "geometry": { "type": "Point", "coordinates": [ -0.3849201, 39.5452824 ] } },
{ "type": "Feature", "properties": { "id": 475183424, "lat": 39.4812236, "lon": -0.3893795, "nombre": "Farmacia Ortopedia del Pilar", "tipo": "pharmacy" }, "geometry": { "type": "Point", "coordinates": [ -0.3893795, 39.4812236 ] } },
{ "type": "Feature", "properties": { "id": 525653752, "lat": 39.4435366, "lon": -0.3902142, "nombre": "Farmacia Bernardeau Serra", "tipo": "pharmacy" }, "geometry": { "type": "Point", "coordinates": [ -0.3902142, 39.4435366 ] } },
{ "type": "Feature", "properties": { "id": 525664356, "lat": 39.443407, "lon": -0.3877352, "nombre": "Sin nombre", "tipo": "pharmacy" }, "geometry": { "type": "Point", "coordinates": [ -0.3877352, 39.443407 ] } },
{ "type": "Feature", "properties": { "id": 530083324, "lat": 39.4812335, "lon": -0.3955433, "nombre": "Sin nombre", "tipo": "bar" }, "geometry": { "type": "Point", "coordinates": [ -0.3955433, 39.4812335 ] } },
{ "type": "Feature", "properties": { "id": 530085846, "lat": 39.4810836, "lon": -0.3960111, "nombre": "Rodo", "tipo": "bar" }, "geometry": { "type": "Point", "coordinates": [ -0.3960111, 39.4810836 ] } },
{ "type": "Feature", "properties": { "id": 530116236, "lat": 39.4852451, "lon": -0.3984648, "nombre": "Restaurante Chino Mei Hua II", "tipo": "restaurant" }, "geometry": { "type": "Point", "coordinates": [ -0.3984648, 39.4852451 ] } },
{ "type": "Feature", "properties": { "id": 530282005, "lat": 39.4843514, "lon": -0.3989197, "nombre": "Sin nombre", "tipo": "pharmacy" }, "geometry": { "type": "Point", "coordinates": [ -0.3989197, 39.4843514 ] } },
{ "type": "Feature", "properties": { "id": 530289812, "lat": 39.4857196, "lon": -0.3968698, "nombre": "Sin nombre", "tipo": "pharmacy" }, "geometry": { "type": "Point", "coordinates": [ -0.3968698, 39.4857196 ] } },
{ "type": "Feature", "properties": { "id": 530289977, "lat": 39.485648, "lon": -0.3969893, "nombre": "Unicaja Banco", "tipo": "bank" }, "geometry": { "type": "Point", "coordinates": [ -0.3969893, 39.485648 ] } },
{ "type": "Feature", "properties": { "id": 530289978, "lat": 39.4854018, "lon": -0.3975932, "nombre": "Caixabank", "tipo": "bank" }, "geometry": { "type": "Point", "coordinates": [ -0.3975932, 39.4854018 ] } },
{ "type": "Feature", "properties": { "id": 603945094, "lat": 39.4635462, "lon": -0.3234952, "nombre": "La Marcelina", "tipo": "restaurant" }, "geometry": { "type": "Point", "coordinates": [ -0.3234952, 39.4635462 ] } },
{ "type": "Feature", "properties": { "id": 821053534, "lat": 39.4748689, "lon": -0.3749513, "nombre": "Petit MontMartre", "tipo": "restaurant" }, "geometry": { "type": "Point", "coordinates": [ -0.3749513, 39.4748689 ] } },
{ "type": "Feature", "properties": { "id": 825235784, "lat": 39.4739384, "lon": -0.3760325, "nombre": "Horchatería El Siglo", "tipo": "restaurant" }, "geometry": { "type": "Point", "coordinates": [ -0.3760325, 39.4739384 ] } },
{ "type": "Feature", "properties": { "id": 825235804, "lat": 39.4788458, "lon": -0.3756944, "nombre": "Prasad Take Away", "tipo": "fast_food" }, "geometry": { "type": "Point", "coordinates": [ -0.3756944, 39.4788458 ] } },
{ "type": "Feature", "properties": { "id": 825235820, "lat": 39.4738263, "lon": -0.3762568, "nombre": "Horchateria de Santa Catalina", "tipo": "cafe" }, "geometry": { "type": "Point", "coordinates": [ -0.3762568, 39.4738263 ] } },
{ "type": "Feature", "properties": { "id": 825235830, "lat": 39.4759235, "lon": -0.3772467, "nombre": "Bodeguilla del Gato", "tipo": "restaurant" }, "geometry": { "type": "Point", "coordinates": [ -0.3772467, 39.4759235 ] } },
{ "type": "Feature", "properties": { "id": 825264578, "lat": 39.4729859, "lon": -0.3580375, "nombre": "Sin nombre", "tipo": "restaurant" }, "geometry": { "type": "Point", "coordinates": [ -0.3580375, 39.4729859 ] } },
{ "type": "Feature", "properties": { "id": 850179219, "lat": 39.4706231, "lon": -0.3760348, "nombre": "Burger King", "tipo": "fast_food" }, "geometry": { "type": "Point", "coordinates": [ -0.3760348, 39.4706231 ] } },
{ "type": "Feature", "properties": { "id": 850179220, "lat": 39.4712948, "lon": -0.3773816, "nombre": "Banco Sabadell", "tipo": "bank" }, "geometry": { "type": "Point", "coordinates": [ -0.3773816, 39.4712948 ] } },
{ "type": "Feature", "properties": { "id": 850179221, "lat": 39.468156, "lon": -0.3802543, "nombre": "San Augustin", "tipo": "restaurant" }, "geometry": { "type": "Point", "coordinates": [ -0.3802543, 39.468156 ] } },
{ "type": "Feature", "properties": { "id": 850179228, "lat": 39.473825, "lon": -0.3760298, "nombre": "CyT Canas y Tapas", "tipo": "restaurant" }, "geometry": { "type": "Point", "coordinates": [ -0.3760298, 39.473825 ] } },
{ "type": "Feature", "properties": { "id": 850179232, "lat": 39.472042, "lon": -0.3765896, "nombre": "Subway", "tipo": "fast_food" }, "geometry": { "type": "Point", "coordinates": [ -0.3765896, 39.472042 ] } },
{ "type": "Feature", "properties": { "id": 850179237, "lat": 39.4959392, "lon": -0.3710206, "nombre": "Solaz", "tipo": "cafe" }, "geometry": { "type": "Point", "coordinates": [ -0.3710206, 39.4959392 ] } },
{ "type": "Feature", "properties": { "id": 850179243, "lat": 39.4714708, "lon": -0.3776649, "nombre": "La Terrazza", "tipo": "restaurant" }, "geometry": { "type": "Point", "coordinates": [ -0.3776649, 39.4714708 ] } },
{ "type": "Feature", "properties": { "id": 850179246, "lat": 39.4954047, "lon": -0.371654, "nombre": "Caixabank", "tipo": "bank" }, "geometry": { "type": "Point", "coordinates": [ -0.371654, 39.4954047 ] } },
{ "type": "Feature", "properties": { "id": 850179248, "lat": 39.4705459, "lon": -0.3754761, "nombre": "Banco Santander", "tipo": "bank" }, "geometry": { "type": "Point", "coordinates": [ -0.3754761, 39.4705459 ] } },
{ "type": "Feature", "properties": { "id": 850179251, "lat": 39.4713212, "lon": -0.3776116, "nombre": "Sin nombre", "tipo": "bank" }, "geometry": { "type": "Point", "coordinates": [ -0.3776116, 39.4713212 ] } },
{ "type": "Feature", "properties": { "id": 850179253, "lat": 39.4749622, "lon": -0.3757222, "nombre": "McDonald's", "tipo": "fast_food" }, "geometry": { "type": "Point", "coordinates": [ -0.3757222, 39.4749622 ] } },
{ "type": "Feature", "properties": { "id": 850179254, "lat": 39.4733028, "lon": -0.3761283, "nombre": "Sagardi Valencia - Cosineros Vascos", "tipo": "restaurant" }, "geometry": { "type": "Point", "coordinates": [ -0.3761283, 39.4733028 ] } },
{ "type": "Feature", "properties": { "id": 850179262, "lat": 39.4951051, "lon": -0.3718504, "nombre": "BBVA", "tipo": "bank" }, "geometry": { "type": "Point", "coordinates": [ -0.3718504, 39.4951051 ] } },
{ "type": "Feature", "properties": { "id": 850179263, "lat": 39.4697562, "lon": -0.3788727, "nombre": "Bancaja", "tipo": "bank" }, "geometry": { "type": "Point", "coordinates": [ -0.3788727, 39.4697562 ] } },
{ "type": "Feature", "properties": { "id": 850179265, "lat": 39.4705239, "lon": -0.3782673, "nombre": "BBVA", "tipo": "bank" }, "geometry": { "type": "Point", "coordinates": [ -0.3782673, 39.4705239 ] } },
{ "type": "Feature", "properties": { "id": 850179268, "lat": 39.4715412, "lon": -0.3771916, "nombre": "Citybank", "tipo": "bank" }, "geometry": { "type": "Point", "coordinates": [ -0.3771916, 39.4715412 ] } },
{ "type": "Feature", "properties": { "id": 869393647, "lat": 39.5086205, "lon": -0.3231805, "nombre": "Sin nombre", "tipo": "cafe" }, "geometry": { "type": "Point", "coordinates": [ -0.3231805, 39.5086205 ] } },
{ "type": "Feature", "properties": { "id": 869393762, "lat": 39.5087902, "lon": -0.3232178, "nombre": "Che Boludo", "tipo": "restaurant" }, "geometry": { "type": "Point", "coordinates": [ -0.3232178, 39.5087902 ] } },
{ "type": "Feature", "properties": { "id": 869393921, "lat": 39.5083964, "lon": -0.3217467, "nombre": "Sin nombre", "tipo": "restaurant" }, "geometry": { "type": "Point", "coordinates": [ -0.3217467, 39.5083964 ] } },
{ "type": "Feature", "properties": { "id": 869394105, "lat": 39.508139, "lon": -0.3218076, "nombre": "Toni", "tipo": "cafe" }, "geometry": { "type": "Point", "coordinates": [ -0.3218076, 39.508139 ] } },
{ "type": "Feature", "properties": { "id": 869447419, "lat": 39.4819069, "lon": -0.3433539, "nombre": "Cafetería Pizzeria", "tipo": "cafe" }, "geometry": { "type": "Point", "coordinates": [ -0.3433539, 39.4819069 ] } },
{ "type": "Feature", "properties": { "id": 869447424, "lat": 39.4820166, "lon": -0.343679, "nombre": "Tarongeria", "tipo": "fast_food" }, "geometry": { "type": "Point", "coordinates": [ -0.343679, 39.4820166 ] } },
{ "type": "Feature", "properties": { "id": 869452945, "lat": 39.4811474, "lon": -0.3441213, "nombre": "Cafetería Ágora", "tipo": "fast_food" }, "geometry": { "type": "Point", "coordinates": [ -0.3441213, 39.4811474 ] } },
{ "type": "Feature", "properties": { "id": 870419532, "lat": 39.5089009, "lon": -0.3235106, "nombre": "Plaza", "tipo": "restaurant" }, "geometry": { "type": "Point", "coordinates": [ -0.3235106, 39.5089009 ] } },
{ "type": "Feature", "properties": { "id": 874022584, "lat": 39.5125885, "lon": -0.3213704, "nombre": "Sin nombre", "tipo": "cafe" }, "geometry": { "type": "Point", "coordinates": [ -0.3213704, 39.5125885 ] } },
{ "type": "Feature", "properties": { "id": 874022919, "lat": 39.5125554, "lon": -0.3211285, "nombre": "Sin nombre", "tipo": "restaurant" }, "geometry": { "type": "Point", "coordinates": [ -0.3211285, 39.5125554 ] } },
{ "type": "Feature", "properties": { "id": 874023141, "lat": 39.5114628, "lon": -0.3207101, "nombre": "Sin nombre", "tipo": "restaurant" }, "geometry": { "type": "Point", "coordinates": [ -0.3207101, 39.5114628 ] } },
{ "type": "Feature", "properties": { "id": 875096971, "lat": 39.4621479, "lon": -0.345849, "nombre": "Farmacia Gregorio", "tipo": "pharmacy" }, "geometry": { "type": "Point", "coordinates": [ -0.345849, 39.4621479 ] } },
{ "type": "Feature", "properties": { "id": 875098129, "lat": 39.4607232, "lon": -0.3425124, "nombre": "Farmacia Gorrochategui-Villuendas, c.b", "tipo": "pharmacy" }, "geometry": { "type": "Point", "coordinates": [ -0.3425124, 39.4607232 ] } },
{ "type": "Feature", "properties": { "id": 909408175, "lat": 39.5124844, "lon": -0.337586, "nombre": "Les Tendes", "tipo": "restaurant" }, "geometry": { "type": "Point", "coordinates": [ -0.337586, 39.5124844 ] } },
{ "type": "Feature", "properties": { "id": 909409227, "lat": 39.5129444, "lon": -0.3382116, "nombre": "La Lluna", "tipo": "restaurant" }, "geometry": { "type": "Point", "coordinates": [ -0.3382116, 39.5129444 ] } },
{ "type": "Feature", "properties": { "id": 973867589, "lat": 39.4682703, "lon": -0.4146017, "nombre": "Sin nombre", "tipo": "pharmacy" }, "geometry": { "type": "Point", "coordinates": [ -0.4146017, 39.4682703 ] } },
{ "type": "Feature", "properties": { "id": 1012745350, "lat": 39.4692597, "lon": -0.3571894, "nombre": "Zazu Lounge Shisha Bar", "tipo": "bar" }, "geometry": { "type": "Point", "coordinates": [ -0.3571894, 39.4692597 ] } },
{ "type": "Feature", "properties": { "id": 1050373440, "lat": 39.5482804, "lon": -0.3891312, "nombre": "Sin nombre", "tipo": "cafe" }, "geometry": { "type": "Point", "coordinates": [ -0.3891312, 39.5482804 ] } },
{ "type": "Feature", "properties": { "id": 1050373452, "lat": 39.5478502, "lon": -0.3898232, "nombre": "Sin nombre", "tipo": "bar" }, "geometry": { "type": "Point", "coordinates": [ -0.3898232, 39.5478502 ] } },
{ "type": "Feature", "properties": { "id": 1050373999, "lat": 39.5479743, "lon": -0.3896247, "nombre": "Sin nombre", "tipo": "restaurant" }, "geometry": { "type": "Point", "coordinates": [ -0.3896247, 39.5479743 ] } },
{ "type": "Feature", "properties": { "id": 1050376423, "lat": 39.5461046, "lon": -0.3893726, "nombre": "Pizzeria Piccolina", "tipo": "restaurant" }, "geometry": { "type": "Point", "coordinates": [ -0.3893726, 39.5461046 ] } },
{ "type": "Feature", "properties": { "id": 1050392260, "lat": 39.543547, "lon": -0.3962283, "nombre": "Ca Paco", "tipo": "restaurant" }, "geometry": { "type": "Point", "coordinates": [ -0.3962283, 39.543547 ] } },
{ "type": "Feature", "properties": { "id": 1050393068, "lat": 39.5435261, "lon": -0.3958456, "nombre": "Sin nombre", "tipo": "bar" }, "geometry": { "type": "Point", "coordinates": [ -0.3958456, 39.5435261 ] } },
{ "type": "Feature", "properties": { "id": 1050395042, "lat": 39.5445419, "lon": -0.3964965, "nombre": "Sin nombre", "tipo": "cafe" }, "geometry": { "type": "Point", "coordinates": [ -0.3964965, 39.5445419 ] } },
{ "type": "Feature", "properties": { "id": 1050395289, "lat": 39.5455595, "lon": -0.3961157, "nombre": "Calero", "tipo": "restaurant" }, "geometry": { "type": "Point", "coordinates": [ -0.3961157, 39.5455595 ] } },
{ "type": "Feature", "properties": { "id": 1050410736, "lat": 39.5425999, "lon": -0.3924785, "nombre": "Cafe i Mes", "tipo": "restaurant" }, "geometry": { "type": "Point", "coordinates": [ -0.3924785, 39.5425999 ] } },
{ "type": "Feature", "properties": { "id": 1050456284, "lat": 39.543043, "lon": -0.3886506, "nombre": "Sher Khan", "tipo": "restaurant" }, "geometry": { "type": "Point", "coordinates": [ -0.3886506, 39.543043 ] } },
{ "type": "Feature", "properties": { "id": 1050458261, "lat": 39.5425213, "lon": -0.3902362, "nombre": "Pizzeria Da Pino", "tipo": "restaurant" }, "geometry": { "type": "Point", "coordinates": [ -0.3902362, 39.5425213 ] } },
{ "type": "Feature", "properties": { "id": 1050462233, "lat": 39.5449137, "lon": -0.3936234, "nombre": "Musical", "tipo": "restaurant" }, "geometry": { "type": "Point", "coordinates": [ -0.3936234, 39.5449137 ] } },
{ "type": "Feature", "properties": { "id": 1050462979, "lat": 39.5451573, "lon": -0.3933348, "nombre": "Soriano", "tipo": "cafe" }, "geometry": { "type": "Point", "coordinates": [ -0.3933348, 39.5451573 ] } },
{ "type": "Feature", "properties": { "id": 1189713990, "lat": 39.4539689, "lon": -0.3927004, "nombre": "Piel Antonio López", "tipo": "clothes" }, "geometry": { "type": "Point", "coordinates": [ -0.3927004, 39.4539689 ] } },
{ "type": "Feature", "properties": { "id": 1189714035, "lat": 39.4540495, "lon": -0.391148, "nombre": "Aamir Alimentación", "tipo": "convenience" }, "geometry": { "type": "Point", "coordinates": [ -0.391148, 39.4540495 ] } },
{ "type": "Feature", "properties": { "id": 1189714087, "lat": 39.459506, "lon": -0.4004963, "nombre": "Sin nombre", "tipo": "pharmacy" }, "geometry": { "type": "Point", "coordinates": [ -0.4004963, 39.459506 ] } },
{ "type": "Feature", "properties": { "id": 1189714095, "lat": 39.4528829, "lon": -0.3899117, "nombre": "La Barraca", "tipo": "fast_food" }, "geometry": { "type": "Point", "coordinates": [ -0.3899117, 39.4528829 ] } },
{ "type": "Feature", "properties": { "id": 1189714135, "lat": 39.4528112, "lon": -0.3887622, "nombre": "Emily", "tipo": "clothes" }, "geometry": { "type": "Point", "coordinates": [ -0.3887622, 39.4528112 ] } },
{ "type": "Feature", "properties": { "id": 1189714153, "lat": 39.4552757, "lon": -0.3941741, "nombre": "Azahar", "tipo": "bakery" }, "geometry": { "type": "Point", "coordinates": [ -0.3941741, 39.4552757 ] } },
{ "type": "Feature", "properties": { "id": 1189714190, "lat": 39.4539326, "lon": -0.3931228, "nombre": "Cuestas", "tipo": "hairdresser" }, "geometry": { "type": "Point", "coordinates": [ -0.3931228, 39.4539326 ] } },
{ "type": "Feature", "properties": { "id": 1189714399, "lat": 39.4532166, "lon": -0.390637, "nombre": "Con Fundamento", "tipo": "cafe" }, "geometry": { "type": "Point", "coordinates": [ -0.390637, 39.4532166 ] } },
{ "type": "Feature", "properties": { "id": 1189714437, "lat": 39.4525017, "lon": -0.3889406, "nombre": "Malonda-Subirats C.B.", "tipo": "pharmacy" }, "geometry": { "type": "Point", "coordinates": [ -0.3889406, 39.4525017 ] } },
{ "type": "Feature", "properties": { "id": 1189714485, "lat": 39.45433, "lon": -0.3936721, "nombre": "Juan de Garay", "tipo": "cafe" }, "geometry": { "type": "Point", "coordinates": [ -0.3936721, 39.45433 ] } },
{ "type": "Feature", "properties": { "id": 1189714544, "lat": 39.4527235, "lon": -0.3887796, "nombre": "NeiZa", "tipo": "clothes" }, "geometry": { "type": "Point", "coordinates": [ -0.3887796, 39.4527235 ] } },
{ "type": "Feature", "properties": { "id": 1189714813, "lat": 39.4538112, "lon": -0.3905772, "nombre": "Rose Indian", "tipo": "convenience" }, "geometry": { "type": "Point", "coordinates": [ -0.3905772, 39.4538112 ] } },
{ "type": "Feature", "properties": { "id": 1189714846, "lat": 39.4544439, "lon": -0.3914508, "nombre": "Tayyab Sweet House", "tipo": "bakery" }, "geometry": { "type": "Point", "coordinates": [ -0.3914508, 39.4544439 ] } },
{ "type": "Feature", "properties": { "id": 1189714878, "lat": 39.4523228, "lon": -0.3890102, "nombre": "Garden", "tipo": "cafe" }, "geometry": { "type": "Point", "coordinates": [ -0.3890102, 39.4523228 ] } },
{ "type": "Feature", "properties": { "id": 1189714945, "lat": 39.4535, "lon": -0.389814, "nombre": "Asados Carmen", "tipo": "fast_food" }, "geometry": { "type": "Point", "coordinates": [ -0.389814, 39.4535 ] } },
{ "type": "Feature", "properties": { "id": 1189715317, "lat": 39.4534639, "lon": -0.3897417, "nombre": "BBVA", "tipo": "bank" }, "geometry": { "type": "Point", "coordinates": [ -0.3897417, 39.4534639 ] } },
{ "type": "Feature", "properties": { "id": 1189715444, "lat": 39.4529562, "lon": -0.3887322, "nombre": "Kimi-K", "tipo": "clothes" }, "geometry": { "type": "Point", "coordinates": [ -0.3887322, 39.4529562 ] } },
{ "type": "Feature", "properties": { "id": 1189715651, "lat": 39.4544606, "lon": -0.3940109, "nombre": "Ldo. Francisco Solana Vives", "tipo": "pharmacy" }, "geometry": { "type": "Point", "coordinates": [ -0.3940109, 39.4544606 ] } },
{ "type": "Feature", "properties": { "id": 1189715704, "lat": 39.4596111, "lon": -0.4003238, "nombre": "El Rincón de Jose IV", "tipo": "bar" }, "geometry": { "type": "Point", "coordinates": [ -0.4003238, 39.4596111 ] } },
{ "type": "Feature", "properties": { "id": 1189715724, "lat": 39.4536563, "lon": -0.3918217, "nombre": "El Rincón del Dulce", "tipo": "bakery" }, "geometry": { "type": "Point", "coordinates": [ -0.3918217, 39.4536563 ] } },
{ "type": "Feature", "properties": { "id": 1189715824, "lat": 39.4536608, "lon": -0.3924015, "nombre": "Avenida", "tipo": "cafe" }, "geometry": { "type": "Point", "coordinates": [ -0.3924015, 39.4536608 ] } },
{ "type": "Feature", "properties": { "id": 1189715898, "lat": 39.453748, "lon": -0.3926417, "nombre": "María Mónica", "tipo": "hairdresser" }, "geometry": { "type": "Point", "coordinates": [ -0.3926417, 39.453748 ] } },
{ "type": "Feature", "properties": { "id": 1189715925, "lat": 39.4533445, "lon": -0.3910393, "nombre": "Sin nombre", "tipo": "convenience" }, "geometry": { "type": "Point", "coordinates": [ -0.3910393, 39.4533445 ] } },
{ "type": "Feature", "properties": { "id": 1189715935, "lat": 39.4554213, "lon": -0.3938171, "nombre": "La Luna", "tipo": "restaurant" }, "geometry": { "type": "Point", "coordinates": [ -0.3938171, 39.4554213 ] } },
{ "type": "Feature", "properties": { "id": 1189716002, "lat": 39.454275, "lon": -0.3919898, "nombre": "Ldo. Juan Miguel Folgado Bisbal", "tipo": "pharmacy" }, "geometry": { "type": "Point", "coordinates": [ -0.3919898, 39.454275 ] } },
{ "type": "Feature", "properties": { "id": 1189716123, "lat": 39.4528256, "lon": -0.3905351, "nombre": "Sin nombre", "tipo": "hairdresser" }, "geometry": { "type": "Point", "coordinates": [ -0.3905351, 39.4528256 ] } },
{ "type": "Feature", "properties": { "id": 1189716340, "lat": 39.4528641, "lon": -0.3904885, "nombre": "Moreno Ponce 2", "tipo": "bakery" }, "geometry": { "type": "Point", "coordinates": [ -0.3904885, 39.4528641 ] } },
{ "type": "Feature", "properties": { "id": 1189716424, "lat": 39.4528787, "lon": -0.3904292, "nombre": "Salon de Té Moreno Ponce 2", "tipo": "cafe" }, "geometry": { "type": "Point", "coordinates": [ -0.3904292, 39.4528787 ] } },
{ "type": "Feature", "properties": { "id": 1189716470, "lat": 39.4541649, "lon": -0.3914605, "nombre": "Alejandro Chen", "tipo": "bar" }, "geometry": { "type": "Point", "coordinates": [ -0.3914605, 39.4541649 ] } },
{ "type": "Feature", "properties": { "id": 1189716541, "lat": 39.4597277, "lon": -0.4002153, "nombre": "El Parque", "tipo": "bakery" }, "geometry": { "type": "Point", "coordinates": [ -0.4002153, 39.4597277 ] } },
{ "type": "Feature", "properties": { "id": 1189716924, "lat": 39.4541725, "lon": -0.39324, "nombre": "Rodelu", "tipo": "fast_food" }, "geometry": { "type": "Point", "coordinates": [ -0.39324, 39.4541725 ] } },
{ "type": "Feature", "properties": { "id": 1189717061, "lat": 39.455031, "lon": -0.3935621, "nombre": "Les Pilars", "tipo": "cafe" }, "geometry": { "type": "Point", "coordinates": [ -0.3935621, 39.455031 ] } },
{ "type": "Feature", "properties": { "id": 1189717466, "lat": 39.4593222, "lon": -0.4006481, "nombre": "Ñam Ñam", "tipo": "bar" }, "geometry": { "type": "Point", "coordinates": [ -0.4006481, 39.4593222 ] } },
{ "type": "Feature", "properties": { "id": 1189717832, "lat": 39.4546812, "lon": -0.3944831, "nombre": "Ebro", "tipo": "restaurant" }, "geometry": { "type": "Point", "coordinates": [ -0.3944831, 39.4546812 ] } },
{ "type": "Feature", "properties": { "id": 1189717850, "lat": 39.4536209, "lon": -0.3903263, "nombre": "Quiros", "tipo": "cafe" }, "geometry": { "type": "Point", "coordinates": [ -0.3903263, 39.4536209 ] } },
{ "type": "Feature", "properties": { "id": 1189717879, "lat": 39.4535151, "lon": -0.3920078, "nombre": "AN", "tipo": "hairdresser" }, "geometry": { "type": "Point", "coordinates": [ -0.3920078, 39.4535151 ] } },
{ "type": "Feature", "properties": { "id": 1189717969, "lat": 39.4543692, "lon": -0.3913373, "nombre": "Casa", "tipo": "fast_food" }, "geometry": { "type": "Point", "coordinates": [ -0.3913373, 39.4543692 ] } },
{ "type": "Feature", "properties": { "id": 1189718077, "lat": 39.4538961, "lon": -0.3901171, "nombre": "Liheto", "tipo": "hairdresser" }, "geometry": { "type": "Point", "coordinates": [ -0.3901171, 39.4538961 ] } },
{ "type": "Feature", "properties": { "id": 1189718141, "lat": 39.4530136, "lon": -0.3887239, "nombre": "MDomingo", "tipo": "convenience" }, "geometry": { "type": "Point", "coordinates": [ -0.3887239, 39.4530136 ] } },
{ "type": "Feature", "properties": { "id": 1189718160, "lat": 39.454029, "lon": -0.3928596, "nombre": "La Lluna", "tipo": "fast_food" }, "geometry": { "type": "Point", "coordinates": [ -0.3928596, 39.454029 ] } },
{ "type": "Feature", "properties": { "id": 1189718230, "lat": 39.4525551, "lon": -0.3890819, "nombre": "Sin nombre", "tipo": "bank" }, "geometry": { "type": "Point", "coordinates": [ -0.3890819, 39.4525551 ] } },
{ "type": "Feature", "properties": { "id": 1189718332, "lat": 39.4539783, "lon": -0.393247, "nombre": "Tu Casa", "tipo": "fast_food" }, "geometry": { "type": "Point", "coordinates": [ -0.393247, 39.4539783 ] } },
{ "type": "Feature", "properties": { "id": 1189718345, "lat": 39.4527199, "lon": -0.3900187, "nombre": "J. Ramón", "tipo": "hairdresser" }, "geometry": { "type": "Point", "coordinates": [ -0.3900187, 39.4527199 ] } },
{ "type": "Feature", "properties": { "id": 1189718469, "lat": 39.4541771, "lon": -0.393373, "nombre": "Champi", "tipo": "bar" }, "geometry": { "type": "Point", "coordinates": [ -0.393373, 39.4541771 ] } },
{ "type": "Feature", "properties": { "id": 1189718499, "lat": 39.4529094, "lon": -0.3899888, "nombre": "Toni's", "tipo": "cafe" }, "geometry": { "type": "Point", "coordinates": [ -0.3899888, 39.4529094 ] } },
{ "type": "Feature", "properties": { "id": 1189718503, "lat": 39.4539836, "lon": -0.3904108, "nombre": "Mari Luz", "tipo": "hairdresser" }, "geometry": { "type": "Point", "coordinates": [ -0.3904108, 39.4539836 ] } },
{ "type": "Feature", "properties": { "id": 1189718555, "lat": 39.4538315, "lon": -0.3923141, "nombre": "Tiffany Moda Íntima", "tipo": "clothes" }, "geometry": { "type": "Point", "coordinates": [ -0.3923141, 39.4538315 ] } },
{ "type": "Feature", "properties": { "id": 1219207660, "lat": 39.4812881, "lon": -0.3723149, "nombre": "María Herrero Mascarós", "tipo": "pharmacy" }, "geometry": { "type": "Point", "coordinates": [ -0.3723149, 39.4812881 ] } },
{ "type": "Feature", "properties": { "id": 1219207671, "lat": 39.4812302, "lon": -0.3721439, "nombre": "Bar Casa Paco", "tipo": "cafe" }, "geometry": { "type": "Point", "coordinates": [ -0.3721439, 39.4812302 ] } },
{ "type": "Feature", "properties": { "id": 1235699545, "lat": 39.4609532, "lon": -0.3914403, "nombre": "Farmacia Tormo Falco", "tipo": "pharmacy" }, "geometry": { "type": "Point", "coordinates": [ -0.3914403, 39.4609532 ] } },
{ "type": "Feature", "properties": { "id": 1236696525, "lat": 39.4636463, "lon": -0.3235039, "nombre": "Azahar", "tipo": "restaurant" }, "geometry": { "type": "Point", "coordinates": [ -0.3235039, 39.4636463 ] } },
{ "type": "Feature", "properties": { "id": 1236696528, "lat": 39.4649003, "lon": -0.3688996, "nombre": "Casa Roberto", "tipo": "restaurant" }, "geometry": { "type": "Point", "coordinates": [ -0.3688996, 39.4649003 ] } },
{ "type": "Feature", "properties": { "id": 1236696530, "lat": 39.4633974, "lon": -0.3234726, "nombre": "La Pepica", "tipo": "restaurant" }, "geometry": { "type": "Point", "coordinates": [ -0.3234726, 39.4633974 ] } },
{ "type": "Feature", "properties": { "id": 1236696531, "lat": 39.4637145, "lon": -0.32351, "nombre": "El Coso", "tipo": "restaurant" }, "geometry": { "type": "Point", "coordinates": [ -0.32351, 39.4637145 ] } },
{ "type": "Feature", "properties": { "id": 1236696532, "lat": 39.4642871, "lon": -0.323598, "nombre": "Restaurante Miramar", "tipo": "restaurant" }, "geometry": { "type": "Point", "coordinates": [ -0.323598, 39.4642871 ] } },
{ "type": "Feature", "properties": { "id": 1236696533, "lat": 39.4639856, "lon": -0.3235554, "nombre": "Tres Cepas", "tipo": "restaurant" }, "geometry": { "type": "Point", "coordinates": [ -0.3235554, 39.4639856 ] } },
{ "type": "Feature", "properties": { "id": 1236696536, "lat": 39.4638677, "lon": -0.3235343, "nombre": "L'Estimat", "tipo": "restaurant" }, "geometry": { "type": "Point", "coordinates": [ -0.3235343, 39.4638677 ] } },
{ "type": "Feature", "properties": { "id": 1236696537, "lat": 39.4771476, "lon": -0.3634481, "nombre": "Barclays", "tipo": "bank" }, "geometry": { "type": "Point", "coordinates": [ -0.3634481, 39.4771476 ] } },
{ "type": "Feature", "properties": { "id": 1236696538, "lat": 39.4769887, "lon": -0.3629312, "nombre": "Cafetería Daniel's", "tipo": "cafe" }, "geometry": { "type": "Point", "coordinates": [ -0.3629312, 39.4769887 ] } },
{ "type": "Feature", "properties": { "id": 1236696539, "lat": 39.4663046, "lon": -0.3245234, "nombre": "Sorolla", "tipo": "restaurant" }, "geometry": { "type": "Point", "coordinates": [ -0.3245234, 39.4663046 ] } },
{ "type": "Feature", "properties": { "id": 1236696543, "lat": 39.463189, "lon": -0.3231189, "nombre": "Tridente", "tipo": "restaurant" }, "geometry": { "type": "Point", "coordinates": [ -0.3231189, 39.463189 ] } },
{ "type": "Feature", "properties": { "id": 1236696548, "lat": 39.4641847, "lon": -0.3235828, "nombre": "Las Carabelas", "tipo": "restaurant" }, "geometry": { "type": "Point", "coordinates": [ -0.3235828, 39.4641847 ] } },
{ "type": "Feature", "properties": { "id": 1310095070, "lat": 39.4662522, "lon": -0.3724307, "nombre": "Sin nombre", "tipo": "bank" }, "geometry": { "type": "Point", "coordinates": [ -0.3724307, 39.4662522 ] } },
{ "type": "Feature", "properties": { "id": 1329816913, "lat": 39.4771117, "lon": -0.4103874, "nombre": "Sin nombre", "tipo": "fast_food" }, "geometry": { "type": "Point", "coordinates": [ -0.4103874, 39.4771117 ] } },
{ "type": "Feature", "properties": { "id": 1392616543, "lat": 39.4774825, "lon": -0.3780204, "nombre": "La Mandrágora", "tipo": "restaurant" }, "geometry": { "type": "Point", "coordinates": [ -0.3780204, 39.4774825 ] } },
{ "type": "Feature", "properties": { "id": 1429139573, "lat": 39.4227706, "lon": -0.3404649, "nombre": "La Genuina", "tipo": "restaurant" }, "geometry": { "type": "Point", "coordinates": [ -0.3404649, 39.4227706 ] } },
{ "type": "Feature", "properties": { "id": 1443922555, "lat": 39.4782441, "lon": -0.3946381, "nombre": "Barton", "tipo": "clothes" }, "geometry": { "type": "Point", "coordinates": [ -0.3946381, 39.4782441 ] } },
{ "type": "Feature", "properties": { "id": 1443922559, "lat": 39.4805806, "lon": -0.3943088, "nombre": "Bierwinkel", "tipo": "restaurant" }, "geometry": { "type": "Point", "coordinates": [ -0.3943088, 39.4805806 ] } },
{ "type": "Feature", "properties": { "id": 1443922567, "lat": 39.4806249, "lon": -0.3935151, "nombre": "Cafetería Caty", "tipo": "cafe" }, "geometry": { "type": "Point", "coordinates": [ -0.3935151, 39.4806249 ] } },
{ "type": "Feature", "properties": { "id": 1443922579, "lat": 39.4805271, "lon": -0.3944235, "nombre": "Comidas Campanar", "tipo": "restaurant" }, "geometry": { "type": "Point", "coordinates": [ -0.3944235, 39.4805271 ] } },
{ "type": "Feature", "properties": { "id": 1443922580, "lat": 39.4786094, "lon": -0.3924837, "nombre": "Cortina", "tipo": "hairdresser" }, "geometry": { "type": "Point", "coordinates": [ -0.3924837, 39.4786094 ] } },
{ "type": "Feature", "properties": { "id": 1443922583, "lat": 39.4803445, "lon": -0.3927074, "nombre": "Domino's", "tipo": "fast_food" }, "geometry": { "type": "Point", "coordinates": [ -0.3927074, 39.4803445 ] } },
{ "type": "Feature", "properties": { "id": 1443922602, "lat": 39.4791182, "lon": -0.3938375, "nombre": "Campanar 43", "tipo": "cafe" }, "geometry": { "type": "Point", "coordinates": [ -0.3938375, 39.4791182 ] } },
{ "type": "Feature", "properties": { "id": 1443922606, "lat": 39.4804942, "lon": -0.3944782, "nombre": "Ibercaja", "tipo": "bank" }, "geometry": { "type": "Point", "coordinates": [ -0.3944782, 39.4804942 ] } },
{ "type": "Feature", "properties": { "id": 1443922611, "lat": 39.4804283, "lon": -0.393595, "nombre": "Caixabank", "tipo": "bank" }, "geometry": { "type": "Point", "coordinates": [ -0.393595, 39.4804283 ] } },
{ "type": "Feature", "properties": { "id": 1443922614, "lat": 39.4788353, "lon": -0.3944715, "nombre": "Lorno", "tipo": "bakery" }, "geometry": { "type": "Point", "coordinates": [ -0.3944715, 39.4788353 ] } },
{ "type": "Feature", "properties": { "id": 1443922622, "lat": 39.480432, "lon": -0.3945156, "nombre": "Papillón", "tipo": "hairdresser" }, "geometry": { "type": "Point", "coordinates": [ -0.3945156, 39.480432 ] } },
{ "type": "Feature", "properties": { "id": 1443922627, "lat": 39.4791634, "lon": -0.3918549, "nombre": "Chino Feliz", "tipo": "restaurant" }, "geometry": { "type": "Point", "coordinates": [ -0.3918549, 39.4791634 ] } },
{ "type": "Feature", "properties": { "id": 1443922630, "lat": 39.4806349, "lon": -0.3929191, "nombre": "Restaurante Pío XII", "tipo": "restaurant" }, "geometry": { "type": "Point", "coordinates": [ -0.3929191, 39.4806349 ] } },
{ "type": "Feature", "properties": { "id": 1443922636, "lat": 39.4795479, "lon": -0.3935379, "nombre": "Campanar 39", "tipo": "pharmacy" }, "geometry": { "type": "Point", "coordinates": [ -0.3935379, 39.4795479 ] } },
{ "type": "Feature", "properties": { "id": 1443922645, "lat": 39.4792824, "lon": -0.3919784, "nombre": "Taberna Montero", "tipo": "restaurant" }, "geometry": { "type": "Point", "coordinates": [ -0.3919784, 39.4792824 ] } },
{ "type": "Feature", "properties": { "id": 1443922649, "lat": 39.480153, "lon": -0.3946464, "nombre": "Telepizza", "tipo": "fast_food" }, "geometry": { "type": "Point", "coordinates": [ -0.3946464, 39.480153 ] } },
{ "type": "Feature", "properties": { "id": 1443922719, "lat": 39.4786328, "lon": -0.3940476, "nombre": "Cerveceria Espe", "tipo": "cafe" }, "geometry": { "type": "Point", "coordinates": [ -0.3940476, 39.4786328 ] } },
{ "type": "Feature", "properties": { "id": 1443922770, "lat": 39.4790654, "lon": -0.3980629, "nombre": "Ana Serra", "tipo": "pharmacy" }, "geometry": { "type": "Point", "coordinates": [ -0.3980629, 39.4790654 ] } },
{ "type": "Feature", "properties": { "id": 1452023093, "lat": 39.4783, "lon": -0.394157, "nombre": "Bocadito's Bar", "tipo": "bar" }, "geometry": { "type": "Point", "coordinates": [ -0.394157, 39.4783 ] } },
{ "type": "Feature", "properties": { "id": 1452023119, "lat": 39.4782213, "lon": -0.3954793, "nombre": "Fernando Torres", "tipo": "hairdresser" }, "geometry": { "type": "Point", "coordinates": [ -0.3954793, 39.4782213 ] } },
{ "type": "Feature", "properties": { "id": 1452023123, "lat": 39.4786465, "lon": -0.3940116, "nombre": "Hui No Cuine", "tipo": "restaurant" }, "geometry": { "type": "Point", "coordinates": [ -0.3940116, 39.4786465 ] } },
{ "type": "Feature", "properties": { "id": 1452023129, "lat": 39.4792643, "lon": -0.3934976, "nombre": "Jarajuel", "tipo": "cafe" }, "geometry": { "type": "Point", "coordinates": [ -0.3934976, 39.4792643 ] } },
{ "type": "Feature", "properties": { "id": 1452023146, "lat": 39.4783446, "lon": -0.3940606, "nombre": "Juan", "tipo": "hairdresser" }, "geometry": { "type": "Point", "coordinates": [ -0.3940606, 39.4783446 ] } },
{ "type": "Feature", "properties": { "id": 1452023156, "lat": 39.4784419, "lon": -0.3939999, "nombre": "Nostrum Sport", "tipo": "clothes" }, "geometry": { "type": "Point", "coordinates": [ -0.3939999, 39.4784419 ] } },
{ "type": "Feature", "properties": { "id": 1452105323, "lat": 39.4787225, "lon": -0.3949996, "nombre": "BBVA", "tipo": "bank" }, "geometry": { "type": "Point", "coordinates": [ -0.3949996, 39.4787225 ] } },
{ "type": "Feature", "properties": { "id": 1452105325, "lat": 39.4786302, "lon": -0.3952488, "nombre": "Bikila", "tipo": "clothes" }, "geometry": { "type": "Point", "coordinates": [ -0.3952488, 39.4786302 ] } },
{ "type": "Feature", "properties": { "id": 1452105327, "lat": 39.4783577, "lon": -0.3955715, "nombre": "Cafenet", "tipo": "cafe" }, "geometry": { "type": "Point", "coordinates": [ -0.3955715, 39.4783577 ] } },
{ "type": "Feature", "properties": { "id": 1452105333, "lat": 39.478686, "lon": -0.3951137, "nombre": "Joypa", "tipo": "bar" }, "geometry": { "type": "Point", "coordinates": [ -0.3951137, 39.478686 ] } },
{ "type": "Feature", "properties": { "id": 1452222175, "lat": 39.4786655, "lon": -0.3948048, "nombre": "Sin nombre", "tipo": "convenience" }, "geometry": { "type": "Point", "coordinates": [ -0.3948048, 39.4786655 ] } },
{ "type": "Feature", "properties": { "id": 1452222177, "lat": 39.4789135, "lon": -0.39435, "nombre": "Sin nombre", "tipo": "fast_food" }, "geometry": { "type": "Point", "coordinates": [ -0.39435, 39.4789135 ] } },
{ "type": "Feature", "properties": { "id": 1452342489, "lat": 39.4799012, "lon": -0.3943911, "nombre": "Cervecería Ciro", "tipo": "bar" }, "geometry": { "type": "Point", "coordinates": [ -0.3943911, 39.4799012 ] } },
{ "type": "Feature", "properties": { "id": 1452342494, "lat": 39.4800168, "lon": -0.3956174, "nombre": "La Botillería", "tipo": "bar" }, "geometry": { "type": "Point", "coordinates": [ -0.3956174, 39.4800168 ] } },
{ "type": "Feature", "properties": { "id": 1452342516, "lat": 39.4800609, "lon": -0.3955132, "nombre": "Peluquería CG", "tipo": "hairdresser" }, "geometry": { "type": "Point", "coordinates": [ -0.3955132, 39.4800609 ] } },
{ "type": "Feature", "properties": { "id": 1452368041, "lat": 39.4786996, "lon": -0.3958178, "nombre": "Ciber Cafe", "tipo": "cafe" }, "geometry": { "type": "Point", "coordinates": [ -0.3958178, 39.4786996 ] } },
{ "type": "Feature", "properties": { "id": 1452368044, "lat": 39.4788635, "lon": -0.3959318, "nombre": "Entreavenidas", "tipo": "hairdresser" }, "geometry": { "type": "Point", "coordinates": [ -0.3959318, 39.4788635 ] } },
{ "type": "Feature", "properties": { "id": 1452368048, "lat": 39.479113, "lon": -0.3961112, "nombre": "Taberna de Vane", "tipo": "bar" }, "geometry": { "type": "Point", "coordinates": [ -0.3961112, 39.479113 ] } },
{ "type": "Feature", "properties": { "id": 1452393082, "lat": 39.4786931, "lon": -0.3956829, "nombre": "Doctor F. Rius", "tipo": "pharmacy" }, "geometry": { "type": "Point", "coordinates": [ -0.3956829, 39.4786931 ] } },
{ "type": "Feature", "properties": { "id": 1452504754, "lat": 39.4800115, "lon": -0.3933371, "nombre": "Amparín", "tipo": "hairdresser" }, "geometry": { "type": "Point", "coordinates": [ -0.3933371, 39.4800115 ] } },
{ "type": "Feature", "properties": { "id": 1452504777, "lat": 39.4800833, "lon": -0.3933055, "nombre": "Bar Siolas", "tipo": "bar" }, "geometry": { "type": "Point", "coordinates": [ -0.3933055, 39.4800833 ] } },
{ "type": "Feature", "properties": { "id": 1452504806, "lat": 39.4786855, "lon": -0.3923139, "nombre": "La Bodeguilla del Rio", "tipo": "bar" }, "geometry": { "type": "Point", "coordinates": [ -0.3923139, 39.4786855 ] } },
{ "type": "Feature", "properties": { "id": 1452504831, "lat": 39.4781185, "lon": -0.3935842, "nombre": "El Cazo Andaluz", "tipo": "bar" }, "geometry": { "type": "Point", "coordinates": [ -0.3935842, 39.4781185 ] } },
{ "type": "Feature", "properties": { "id": 1452504841, "lat": 39.4790676, "lon": -0.3917966, "nombre": "Restaurante Japonés Kyoto", "tipo": "restaurant" }, "geometry": { "type": "Point", "coordinates": [ -0.3917966, 39.4790676 ] } },
{ "type": "Feature", "properties": { "id": 1452635835, "lat": 39.480656, "lon": -0.3949329, "nombre": "Caixabank", "tipo": "bank" }, "geometry": { "type": "Point", "coordinates": [ -0.3949329, 39.480656 ] } },
{ "type": "Feature", "properties": { "id": 1452635843, "lat": 39.4800986, "lon": -0.3964383, "nombre": "Cony's", "tipo": "hairdresser" }, "geometry": { "type": "Point", "coordinates": [ -0.3964383, 39.4800986 ] } },
{ "type": "Feature", "properties": { "id": 1452635854, "lat": 39.4801997, "lon": -0.3959078, "nombre": "Kutxabank", "tipo": "bank" }, "geometry": { "type": "Point", "coordinates": [ -0.3959078, 39.4801997 ] } },
{ "type": "Feature", "properties": { "id": 1452635861, "lat": 39.4804704, "lon": -0.3967025, "nombre": "Los Alpes", "tipo": "restaurant" }, "geometry": { "type": "Point", "coordinates": [ -0.3967025, 39.4804704 ] } },
{ "type": "Feature", "properties": { "id": 1452644859, "lat": 39.480333, "lon": -0.3959627, "nombre": "Capricho de las Américas", "tipo": "cafe" }, "geometry": { "type": "Point", "coordinates": [ -0.3959627, 39.480333 ] } },
{ "type": "Feature", "properties": { "id": 1452685298, "lat": 39.4809996, "lon": -0.3956315, "nombre": "Bar Oporto", "tipo": "bar" }, "geometry": { "type": "Point", "coordinates": [ -0.3956315, 39.4809996 ] } },
{ "type": "Feature", "properties": { "id": 1452779638, "lat": 39.481467, "lon": -0.3939098, "nombre": "El Tarantín Chiflado", "tipo": "restaurant" }, "geometry": { "type": "Point", "coordinates": [ -0.3939098, 39.481467 ] } },
{ "type": "Feature", "properties": { "id": 1452779640, "lat": 39.4807121, "lon": -0.3939515, "nombre": "Restaurante Estancia la Española", "tipo": "restaurant" }, "geometry": { "type": "Point", "coordinates": [ -0.3939515, 39.4807121 ] } },
{ "type": "Feature", "properties": { "id": 1479104481, "lat": 39.4917639, "lon": -0.3963953, "nombre": "Farmacia Nou Mestalla", "tipo": "pharmacy" }, "geometry": { "type": "Point", "coordinates": [ -0.3963953, 39.4917639 ] } },
{ "type": "Feature", "properties": { "id": 1480123197, "lat": 39.4909254, "lon": -0.3943477, "nombre": "Sin nombre", "tipo": "pharmacy" }, "geometry": { "type": "Point", "coordinates": [ -0.3943477, 39.4909254 ] } },
{ "type": "Feature", "properties": { "id": 1480123317, "lat": 39.4913902, "lon": -0.3993723, "nombre": "ZAZU", "tipo": "restaurant" }, "geometry": { "type": "Point", "coordinates": [ -0.3993723, 39.4913902 ] } },
{ "type": "Feature", "properties": { "id": 1484607864, "lat": 39.472988, "lon": -0.375503, "nombre": "Cafe Madrid", "tipo": "cafe" }, "geometry": { "type": "Point", "coordinates": [ -0.375503, 39.472988 ] } },
{ "type": "Feature", "properties": { "id": 1531979541, "lat": 39.461217, "lon": -0.3729938, "nombre": "Loteria 61", "tipo": "convenience" }, "geometry": { "type": "Point", "coordinates": [ -0.3729938, 39.461217 ] } },
{ "type": "Feature", "properties": { "id": 1542427855, "lat": 39.4556158, "lon": -0.4044433, "nombre": "Sin nombre", "tipo": "pharmacy" }, "geometry": { "type": "Point", "coordinates": [ -0.4044433, 39.4556158 ] } },
{ "type": "Feature", "properties": { "id": 1542427860, "lat": 39.4557934, "lon": -0.4017246, "nombre": "Farmacia Contell", "tipo": "pharmacy" }, "geometry": { "type": "Point", "coordinates": [ -0.4017246, 39.4557934 ] } },
{ "type": "Feature", "properties": { "id": 1563550242, "lat": 39.4778644, "lon": -0.3971542, "nombre": "Restaurante D'Antonella", "tipo": "restaurant" }, "geometry": { "type": "Point", "coordinates": [ -0.3971542, 39.4778644 ] } },
{ "type": "Feature", "properties": { "id": 1563550272, "lat": 39.4786511, "lon": -0.4016925, "nombre": "Restaurante DiBocca", "tipo": "restaurant" }, "geometry": { "type": "Point", "coordinates": [ -0.4016925, 39.4786511 ] } },
{ "type": "Feature", "properties": { "id": 1563717336, "lat": 39.4790652, "lon": -0.398506, "nombre": "Sin nombre", "tipo": "pharmacy" }, "geometry": { "type": "Point", "coordinates": [ -0.398506, 39.4790652 ] } },
{ "type": "Feature", "properties": { "id": 1563717338, "lat": 39.4809239, "lon": -0.4033986, "nombre": "Toni Montana Pub", "tipo": "bar" }, "geometry": { "type": "Point", "coordinates": [ -0.4033986, 39.4809239 ] } },
{ "type": "Feature", "properties": { "id": 1563717340, "lat": 39.4813424, "lon": -0.4025829, "nombre": "Sin nombre", "tipo": "pharmacy" }, "geometry": { "type": "Point", "coordinates": [ -0.4025829, 39.4813424 ] } },
{ "type": "Feature", "properties": { "id": 1563717352, "lat": 39.4787422, "lon": -0.4021538, "nombre": "Sin nombre", "tipo": "pharmacy" }, "geometry": { "type": "Point", "coordinates": [ -0.4021538, 39.4787422 ] } },
{ "type": "Feature", "properties": { "id": 1597980841, "lat": 39.4912962, "lon": -0.4008089, "nombre": "Sin nombre", "tipo": "pharmacy" }, "geometry": { "type": "Point", "coordinates": [ -0.4008089, 39.4912962 ] } },
{ "type": "Feature", "properties": { "id": 1602699256, "lat": 39.5126344, "lon": -0.4114225, "nombre": "Horno Rugi", "tipo": "bakery" }, "geometry": { "type": "Point", "coordinates": [ -0.4114225, 39.5126344 ] } },
{ "type": "Feature", "properties": { "id": 1603900398, "lat": 39.5095979, "lon": -0.4100363, "nombre": "ruralcaixa", "tipo": "bank" }, "geometry": { "type": "Point", "coordinates": [ -0.4100363, 39.5095979 ] } },
{ "type": "Feature", "properties": { "id": 1603938337, "lat": 39.5070422, "lon": -0.4066778, "nombre": "La Casa de Lito", "tipo": "restaurant" }, "geometry": { "type": "Point", "coordinates": [ -0.4066778, 39.5070422 ] } },
{ "type": "Feature", "properties": { "id": 1603965194, "lat": 39.509066, "lon": -0.4126432, "nombre": "Horno Santa Margarita", "tipo": "bakery" }, "geometry": { "type": "Point", "coordinates": [ -0.4126432, 39.509066 ] } },
{ "type": "Feature", "properties": { "id": 1603971456, "lat": 39.4880691, "lon": -0.3844424, "nombre": "Horno pastelería Marchalenes", "tipo": "bakery" }, "geometry": { "type": "Point", "coordinates": [ -0.3844424, 39.4880691 ] } },
{ "type": "Feature", "properties": { "id": 1604875895, "lat": 39.5074121, "lon": -0.4081146, "nombre": "Sin nombre", "tipo": "hairdresser" }, "geometry": { "type": "Point", "coordinates": [ -0.4081146, 39.5074121 ] } },
{ "type": "Feature", "properties": { "id": 1613639591, "lat": 39.4627216, "lon": -0.3442098, "nombre": "Caixabank", "tipo": "bank" }, "geometry": { "type": "Point", "coordinates": [ -0.3442098, 39.4627216 ] } },
{ "type": "Feature", "properties": { "id": 1613640209, "lat": 39.4628755, "lon": -0.3441532, "nombre": "Caixabank", "tipo": "bank" }, "geometry": { "type": "Point", "coordinates": [ -0.3441532, 39.4628755 ] } },
{ "type": "Feature", "properties": { "id": 1615884826, "lat": 39.4932732, "lon": -0.3795986, "nombre": "Ibercaja", "tipo": "bank" }, "geometry": { "type": "Point", "coordinates": [ -0.3795986, 39.4932732 ] } },
{ "type": "Feature", "properties": { "id": 1615892131, "lat": 39.4966697, "lon": -0.3771337, "nombre": "Caixabank", "tipo": "bank" }, "geometry": { "type": "Point", "coordinates": [ -0.3771337, 39.4966697 ] } },
{ "type": "Feature", "properties": { "id": 1615901442, "lat": 39.4941485, "lon": -0.3833267, "nombre": "Banco Santander", "tipo": "bank" }, "geometry": { "type": "Point", "coordinates": [ -0.3833267, 39.4941485 ] } },
{ "type": "Feature", "properties": { "id": 1615910656, "lat": 39.4923229, "lon": -0.3827312, "nombre": "Caixabank", "tipo": "bank" }, "geometry": { "type": "Point", "coordinates": [ -0.3827312, 39.4923229 ] } },
{ "type": "Feature", "properties": { "id": 1616009784, "lat": 39.4952828, "lon": -0.3740141, "nombre": "CAM", "tipo": "bank" }, "geometry": { "type": "Point", "coordinates": [ -0.3740141, 39.4952828 ] } },
{ "type": "Feature", "properties": { "id": 1616019725, "lat": 39.4928031, "lon": -0.3737351, "nombre": "Banco Santander", "tipo": "bank" }, "geometry": { "type": "Point", "coordinates": [ -0.3737351, 39.4928031 ] } },
{ "type": "Feature", "properties": { "id": 1616024408, "lat": 39.4921987, "lon": -0.3740636, "nombre": "Caixabank", "tipo": "bank" }, "geometry": { "type": "Point", "coordinates": [ -0.3740636, 39.4921987 ] } },
{ "type": "Feature", "properties": { "id": 1616042430, "lat": 39.4924636, "lon": -0.3735688, "nombre": "BBVA", "tipo": "bank" }, "geometry": { "type": "Point", "coordinates": [ -0.3735688, 39.4924636 ] } },
{ "type": "Feature", "properties": { "id": 1616053772, "lat": 39.4901074, "lon": -0.3752243, "nombre": "Banco Santander", "tipo": "bank" }, "geometry": { "type": "Point", "coordinates": [ -0.3752243, 39.4901074 ] } },
{ "type": "Feature", "properties": { "id": 1616065537, "lat": 39.493738, "lon": -0.3813885, "nombre": "Caixabank", "tipo": "bank" }, "geometry": { "type": "Point", "coordinates": [ -0.3813885, 39.493738 ] } },
{ "type": "Feature", "properties": { "id": 1616071524, "lat": 39.4931957, "lon": -0.378717, "nombre": "Caja Rural", "tipo": "bank" }, "geometry": { "type": "Point", "coordinates": [ -0.378717, 39.4931957 ] } },
{ "type": "Feature", "properties": { "id": 1623694533, "lat": 39.510902, "lon": -0.4110613, "nombre": "Sin nombre", "tipo": "hairdresser" }, "geometry": { "type": "Point", "coordinates": [ -0.4110613, 39.510902 ] } },
{ "type": "Feature", "properties": { "id": 1655921816, "lat": 39.462901, "lon": -0.333204, "nombre": "Horno S. Francisco", "tipo": "bakery" }, "geometry": { "type": "Point", "coordinates": [ -0.333204, 39.462901 ] } },
{ "type": "Feature", "properties": { "id": 1660689412, "lat": 39.5050167, "lon": -0.3636844, "nombre": "Sin nombre", "tipo": "cafe" }, "geometry": { "type": "Point", "coordinates": [ -0.3636844, 39.5050167 ] } },
{ "type": "Feature", "properties": { "id": 1671652517, "lat": 39.4701876, "lon": -0.3403404, "nombre": "Farmacia L'Alguer", "tipo": "pharmacy" }, "geometry": { "type": "Point", "coordinates": [ -0.3403404, 39.4701876 ] } },
{ "type": "Feature", "properties": { "id": 1671662974, "lat": 39.468009, "lon": -0.3402566, "nombre": "Peluquería Amano", "tipo": "hairdresser" }, "geometry": { "type": "Point", "coordinates": [ -0.3402566, 39.468009 ] } },
{ "type": "Feature", "properties": { "id": 1671709553, "lat": 39.4683716, "lon": -0.3408774, "nombre": "José Luis Moda de Hombres", "tipo": "clothes" }, "geometry": { "type": "Point", "coordinates": [ -0.3408774, 39.4683716 ] } },
{ "type": "Feature", "properties": { "id": 1671709694, "lat": 39.4698065, "lon": -0.3385331, "nombre": "Telepizza", "tipo": "fast_food" }, "geometry": { "type": "Point", "coordinates": [ -0.3385331, 39.4698065 ] } },
{ "type": "Feature", "properties": { "id": 1671709837, "lat": 39.4709006, "lon": -0.3431484, "nombre": "Pollo Express", "tipo": "restaurant" }, "geometry": { "type": "Point", "coordinates": [ -0.3431484, 39.4709006 ] } },
{ "type": "Feature", "properties": { "id": 1673397070, "lat": 39.4752392, "lon": -0.3817483, "nombre": "Prêt-à-Porter \"Comidas para llevar\"", "tipo": "restaurant" }, "geometry": { "type": "Point", "coordinates": [ -0.3817483, 39.4752392 ] } },
{ "type": "Feature", "properties": { "id": 1673941792, "lat": 39.4649836, "lon": -0.385011, "nombre": "Fata Morgana", "tipo": "bar" }, "geometry": { "type": "Point", "coordinates": [ -0.385011, 39.4649836 ] } },
{ "type": "Feature", "properties": { "id": 1699218027, "lat": 39.4571957, "lon": -0.3725937, "nombre": "Lda. María Teresa Saus Bernabé", "tipo": "pharmacy" }, "geometry": { "type": "Point", "coordinates": [ -0.3725937, 39.4571957 ] } },
{ "type": "Feature", "properties": { "id": 1699218679, "lat": 39.4574224, "lon": -0.3725732, "nombre": "Caprichos Lourdes", "tipo": "clothes" }, "geometry": { "type": "Point", "coordinates": [ -0.3725732, 39.4574224 ] } },
{ "type": "Feature", "properties": { "id": 1707625258, "lat": 39.4552115, "lon": -0.3535623, "nombre": "L'Umbracle terraza", "tipo": "bar" }, "geometry": { "type": "Point", "coordinates": [ -0.3535623, 39.4552115 ] } },
{ "type": "Feature", "properties": { "id": 1708544980, "lat": 39.4616219, "lon": -0.34154, "nombre": "Cafe Bar Arias", "tipo": "bar" }, "geometry": { "type": "Point", "coordinates": [ -0.34154, 39.4616219 ] } },
{ "type": "Feature", "properties": { "id": 1708544981, "lat": 39.4610973, "lon": -0.3423298, "nombre": "Centelles Peluqueros", "tipo": "hairdresser" }, "geometry": { "type": "Point", "coordinates": [ -0.3423298, 39.4610973 ] } },
{ "type": "Feature", "properties": { "id": 1708544983, "lat": 39.4617559, "lon": -0.3420025, "nombre": "Cerveceria Cafeteria Noguera", "tipo": "bar" }, "geometry": { "type": "Point", "coordinates": [ -0.3420025, 39.4617559 ] } },
{ "type": "Feature", "properties": { "id": 1708544986, "lat": 39.4615198, "lon": -0.3421098, "nombre": "Meson Rincon de Asturias", "tipo": "restaurant" }, "geometry": { "type": "Point", "coordinates": [ -0.3421098, 39.4615198 ] } },
{ "type": "Feature", "properties": { "id": 1708719117, "lat": 39.4627754, "lon": -0.3449393, "nombre": "Cerveceruia Argudo", "tipo": "bar" }, "geometry": { "type": "Point", "coordinates": [ -0.3449393, 39.4627754 ] } },
{ "type": "Feature", "properties": { "id": 1708719131, "lat": 39.4616676, "lon": -0.3434534, "nombre": "Bar El Carro", "tipo": "bar" }, "geometry": { "type": "Point", "coordinates": [ -0.3434534, 39.4616676 ] } },
{ "type": "Feature", "properties": { "id": 1708719142, "lat": 39.4617007, "lon": -0.3443278, "nombre": "La Alqueria Arroces", "tipo": "restaurant" }, "geometry": { "type": "Point", "coordinates": [ -0.3443278, 39.4617007 ] } },
{ "type": "Feature", "properties": { "id": 1708719158, "lat": 39.4619119, "lon": -0.3443385, "nombre": "Banco Santander", "tipo": "bank" }, "geometry": { "type": "Point", "coordinates": [ -0.3443385, 39.4619119 ] } },
{ "type": "Feature", "properties": { "id": 1708719161, "lat": 39.4613427, "lon": -0.3430381, "nombre": "Bar Lica", "tipo": "bar" }, "geometry": { "type": "Point", "coordinates": [ -0.3430381, 39.4613427 ] } },
{ "type": "Feature", "properties": { "id": 1708719169, "lat": 39.4612058, "lon": -0.3436599, "nombre": "Peluqueria Universo", "tipo": "hairdresser" }, "geometry": { "type": "Point", "coordinates": [ -0.3436599, 39.4612058 ] } },
{ "type": "Feature", "properties": { "id": 1708719175, "lat": 39.4620444, "lon": -0.3447247, "nombre": "Bar Trafalgar", "tipo": "bar" }, "geometry": { "type": "Point", "coordinates": [ -0.3447247, 39.4620444 ] } },
{ "type": "Feature", "properties": { "id": 1708719176, "lat": 39.4630136, "lon": -0.3448267, "nombre": "Ilu Ponce", "tipo": "hairdresser" }, "geometry": { "type": "Point", "coordinates": [ -0.3448267, 39.4630136 ] } },
{ "type": "Feature", "properties": { "id": 1708719178, "lat": 39.46332, "lon": -0.3451137, "nombre": "Banco Sabadell", "tipo": "bank" }, "geometry": { "type": "Point", "coordinates": [ -0.3451137, 39.46332 ] } },
{ "type": "Feature", "properties": { "id": 1708726629, "lat": 39.463436, "lon": -0.3458647, "nombre": "Cerveceria Restaurante Islas Canarias", "tipo": "restaurant" }, "geometry": { "type": "Point", "coordinates": [ -0.3458647, 39.463436 ] } },
{ "type": "Feature", "properties": { "id": 1708726638, "lat": 39.4635665, "lon": -0.3456669, "nombre": "Sin nombre", "tipo": "restaurant" }, "geometry": { "type": "Point", "coordinates": [ -0.3456669, 39.4635665 ] } },
{ "type": "Feature", "properties": { "id": 1708774002, "lat": 39.4639247, "lon": -0.3467578, "nombre": "Cafeteria Sendra", "tipo": "bar" }, "geometry": { "type": "Point", "coordinates": [ -0.3467578, 39.4639247 ] } },
{ "type": "Feature", "properties": { "id": 1708774010, "lat": 39.4626717, "lon": -0.3470991, "nombre": "Forn Pastisseria El Panete", "tipo": "bakery" }, "geometry": { "type": "Point", "coordinates": [ -0.3470991, 39.4626717 ] } },
{ "type": "Feature", "properties": { "id": 1708774027, "lat": 39.4623488, "lon": -0.3460417, "nombre": "Bar Mis Tapas", "tipo": "bar" }, "geometry": { "type": "Point", "coordinates": [ -0.3460417, 39.4623488 ] } },
{ "type": "Feature", "properties": { "id": 1708786778, "lat": 39.4620092, "lon": -0.34701, "nombre": "Mesón Iranzo", "tipo": "bar" }, "geometry": { "type": "Point", "coordinates": [ -0.34701, 39.4620092 ] } },
{ "type": "Feature", "properties": { "id": 1708786782, "lat": 39.461475, "lon": -0.3472326, "nombre": "Comidas Caseras El Castillo de la Mota", "tipo": "restaurant" }, "geometry": { "type": "Point", "coordinates": [ -0.3472326, 39.461475 ] } },
{ "type": "Feature", "properties": { "id": 1708818883, "lat": 39.4612636, "lon": -0.3463369, "nombre": "Sin nombre", "tipo": "bar" }, "geometry": { "type": "Point", "coordinates": [ -0.3463369, 39.4612636 ] } },
{ "type": "Feature", "properties": { "id": 1708818891, "lat": 39.4618146, "lon": -0.3460712, "nombre": "Bar - Las Gaviota", "tipo": "bar" }, "geometry": { "type": "Point", "coordinates": [ -0.3460712, 39.4618146 ] } },
{ "type": "Feature", "properties": { "id": 1708818896, "lat": 39.4620051, "lon": -0.3461733, "nombre": "Nuevo Rocio", "tipo": "bar" }, "geometry": { "type": "Point", "coordinates": [ -0.3461733, 39.4620051 ] } },
{ "type": "Feature", "properties": { "id": 1708818915, "lat": 39.4611436, "lon": -0.3464118, "nombre": "* Star * Peluqueria", "tipo": "hairdresser" }, "geometry": { "type": "Point", "coordinates": [ -0.3464118, 39.4611436 ] } },
{ "type": "Feature", "properties": { "id": 1708947062, "lat": 39.4625188, "lon": -0.343762, "nombre": "Bar 130", "tipo": "restaurant" }, "geometry": { "type": "Point", "coordinates": [ -0.343762, 39.4625188 ] } },
{ "type": "Feature", "properties": { "id": 1708947064, "lat": 39.4632465, "lon": -0.3429593, "nombre": "Burger King", "tipo": "fast_food" }, "geometry": { "type": "Point", "coordinates": [ -0.3429593, 39.4632465 ] } },
{ "type": "Feature", "properties": { "id": 1708960523, "lat": 39.4633692, "lon": -0.3445474, "nombre": "Donner Kebab", "tipo": "restaurant" }, "geometry": { "type": "Point", "coordinates": [ -0.3445474, 39.4633692 ] } },
{ "type": "Feature", "properties": { "id": 1708960526, "lat": 39.4624713, "lon": -0.3432865, "nombre": "Super kebab", "tipo": "restaurant" }, "geometry": { "type": "Point", "coordinates": [ -0.3432865, 39.4624713 ] } },
{ "type": "Feature", "properties": { "id": 1712713227, "lat": 39.4607236, "lon": -0.3454019, "nombre": "Planeta Cafe", "tipo": "cafe" }, "geometry": { "type": "Point", "coordinates": [ -0.3454019, 39.4607236 ] } },
{ "type": "Feature", "properties": { "id": 1712713244, "lat": 39.4587397, "lon": -0.346228, "nombre": "Sin nombre", "tipo": "pharmacy" }, "geometry": { "type": "Point", "coordinates": [ -0.346228, 39.4587397 ] } },
{ "type": "Feature", "properties": { "id": 1712738769, "lat": 39.4596882, "lon": -0.3505312, "nombre": "Caixabank", "tipo": "bank" }, "geometry": { "type": "Point", "coordinates": [ -0.3505312, 39.4596882 ] } },
{ "type": "Feature", "properties": { "id": 1719281736, "lat": 39.4355438, "lon": -0.39059, "nombre": "Café La Lola", "tipo": "bar" }, "geometry": { "type": "Point", "coordinates": [ -0.39059, 39.4355438 ] } },
{ "type": "Feature", "properties": { "id": 1719285130, "lat": 39.4352704, "lon": -0.3915985, "nombre": "Panadería Lourdes", "tipo": "bakery" }, "geometry": { "type": "Point", "coordinates": [ -0.3915985, 39.4352704 ] } },
{ "type": "Feature", "properties": { "id": 1719287005, "lat": 39.4344251, "lon": -0.3925614, "nombre": "Sin nombre", "tipo": "pharmacy" }, "geometry": { "type": "Point", "coordinates": [ -0.3925614, 39.4344251 ] } },
{ "type": "Feature", "properties": { "id": 1719287006, "lat": 39.4352206, "lon": -0.3910191, "nombre": "Farmacia La Torre", "tipo": "pharmacy" }, "geometry": { "type": "Point", "coordinates": [ -0.3910191, 39.4352206 ] } },
{ "type": "Feature", "properties": { "id": 1719292004, "lat": 39.43387, "lon": -0.3914402, "nombre": "Malpeiná", "tipo": "hairdresser" }, "geometry": { "type": "Point", "coordinates": [ -0.3914402, 39.43387 ] } },
{ "type": "Feature", "properties": { "id": 1719308792, "lat": 39.4348623, "lon": -0.3910218, "nombre": "Horno Arnal", "tipo": "bakery" }, "geometry": { "type": "Point", "coordinates": [ -0.3910218, 39.4348623 ] } },
{ "type": "Feature", "properties": { "id": 1719314499, "lat": 39.4341952, "lon": -0.3912981, "nombre": "la Torre", "tipo": "cafe" }, "geometry": { "type": "Point", "coordinates": [ -0.3912981, 39.4341952 ] } },
{ "type": "Feature", "properties": { "id": 1720445042, "lat": 39.4686655, "lon": -0.3324479, "nombre": "Bodega bar Flor", "tipo": "restaurant" }, "geometry": { "type": "Point", "coordinates": [ -0.3324479, 39.4686655 ] } },
{ "type": "Feature", "properties": { "id": 1746655011, "lat": 39.4616369, "lon": -0.4004227, "nombre": "Cervecería - Bar Fito", "tipo": "bar" }, "geometry": { "type": "Point", "coordinates": [ -0.4004227, 39.4616369 ] } },
{ "type": "Feature", "properties": { "id": 1765404886, "lat": 39.4887068, "lon": -0.3752922, "nombre": "Bar Mojacar", "tipo": "restaurant" }, "geometry": { "type": "Point", "coordinates": [ -0.3752922, 39.4887068 ] } },
{ "type": "Feature", "properties": { "id": 1767260960, "lat": 39.5454479, "lon": -0.3852118, "nombre": "Sin nombre", "tipo": "pharmacy" }, "geometry": { "type": "Point", "coordinates": [ -0.3852118, 39.5454479 ] } },
{ "type": "Feature", "properties": { "id": 1767274351, "lat": 39.5457685, "lon": -0.3848148, "nombre": "Bar Silvestret", "tipo": "bar" }, "geometry": { "type": "Point", "coordinates": [ -0.3848148, 39.5457685 ] } },
{ "type": "Feature", "properties": { "id": 1767293996, "lat": 39.5434809, "lon": -0.381741, "nombre": "Bar Poliesportiu", "tipo": "bar" }, "geometry": { "type": "Point", "coordinates": [ -0.381741, 39.5434809 ] } },
{ "type": "Feature", "properties": { "id": 1768152014, "lat": 39.5437856, "lon": -0.3874031, "nombre": "Bar Racó de Vega", "tipo": "restaurant" }, "geometry": { "type": "Point", "coordinates": [ -0.3874031, 39.5437856 ] } },
{ "type": "Feature", "properties": { "id": 1768159288, "lat": 39.5458122, "lon": -0.3846535, "nombre": "Banc de València", "tipo": "bank" }, "geometry": { "type": "Point", "coordinates": [ -0.3846535, 39.5458122 ] } },
{ "type": "Feature", "properties": { "id": 1783289814, "lat": 39.455439, "lon": -0.3667524, "nombre": "la del trovador", "tipo": "restaurant" }, "geometry": { "type": "Point", "coordinates": [ -0.3667524, 39.455439 ] } },
{ "type": "Feature", "properties": { "id": 1783289817, "lat": 39.4558978, "lon": -0.3656538, "nombre": "Casa Jose - Bodega la Mancha", "tipo": "restaurant" }, "geometry": { "type": "Point", "coordinates": [ -0.3656538, 39.4558978 ] } },
{ "type": "Feature", "properties": { "id": 1783289819, "lat": 39.456241, "lon": -0.3647549, "nombre": "Sin nombre", "tipo": "restaurant" }, "geometry": { "type": "Point", "coordinates": [ -0.3647549, 39.456241 ] } },
{ "type": "Feature", "properties": { "id": 1783289822, "lat": 39.4568386, "lon": -0.3638161, "nombre": "Sin nombre", "tipo": "restaurant" }, "geometry": { "type": "Point", "coordinates": [ -0.3638161, 39.4568386 ] } },
{ "type": "Feature", "properties": { "id": 1783289825, "lat": 39.4571201, "lon": -0.3680658, "nombre": "Sin nombre", "tipo": "restaurant" }, "geometry": { "type": "Point", "coordinates": [ -0.3680658, 39.4571201 ] } },
{ "type": "Feature", "properties": { "id": 1783289829, "lat": 39.4573084, "lon": -0.3623268, "nombre": "Sin nombre", "tipo": "bakery" }, "geometry": { "type": "Point", "coordinates": [ -0.3623268, 39.4573084 ] } },
{ "type": "Feature", "properties": { "id": 1783289834, "lat": 39.457631, "lon": -0.3681332, "nombre": "Sin nombre", "tipo": "restaurant" }, "geometry": { "type": "Point", "coordinates": [ -0.3681332, 39.457631 ] } },
{ "type": "Feature", "properties": { "id": 1783289838, "lat": 39.4588739, "lon": -0.3685293, "nombre": "Aleimuna", "tipo": "restaurant" }, "geometry": { "type": "Point", "coordinates": [ -0.3685293, 39.4588739 ] } },
{ "type": "Feature", "properties": { "id": 1783289848, "lat": 39.4593312, "lon": -0.3690248, "nombre": "Sin nombre", "tipo": "cafe" }, "geometry": { "type": "Point", "coordinates": [ -0.3690248, 39.4593312 ] } },
{ "type": "Feature", "properties": { "id": 1783289868, "lat": 39.4601384, "lon": -0.3614386, "nombre": "Moreno Ponce", "tipo": "bakery" }, "geometry": { "type": "Point", "coordinates": [ -0.3614386, 39.4601384 ] } },
{ "type": "Feature", "properties": { "id": 1783289872, "lat": 39.4603501, "lon": -0.368294, "nombre": "Suleman Doner Kebab y Pizza", "tipo": "restaurant" }, "geometry": { "type": "Point", "coordinates": [ -0.368294, 39.4603501 ] } },
{ "type": "Feature", "properties": { "id": 1783289876, "lat": 39.4605178, "lon": -0.3676955, "nombre": "Laifu", "tipo": "restaurant" }, "geometry": { "type": "Point", "coordinates": [ -0.3676955, 39.4605178 ] } },
{ "type": "Feature", "properties": { "id": 1783289878, "lat": 39.460596, "lon": -0.3694887, "nombre": "La Estrella", "tipo": "cafe" }, "geometry": { "type": "Point", "coordinates": [ -0.3694887, 39.460596 ] } },
{ "type": "Feature", "properties": { "id": 1783289879, "lat": 39.4606562, "lon": -0.3675172, "nombre": "Colala Noodles & Sushi", "tipo": "restaurant" }, "geometry": { "type": "Point", "coordinates": [ -0.3675172, 39.4606562 ] } },
{ "type": "Feature", "properties": { "id": 1783289886, "lat": 39.4611851, "lon": -0.3624676, "nombre": "Montesol", "tipo": "bakery" }, "geometry": { "type": "Point", "coordinates": [ -0.3624676, 39.4611851 ] } },
{ "type": "Feature", "properties": { "id": 1783289888, "lat": 39.4612447, "lon": -0.3686515, "nombre": "Concha Espejo Cervello", "tipo": "pharmacy" }, "geometry": { "type": "Point", "coordinates": [ -0.3686515, 39.4612447 ] } },
{ "type": "Feature", "properties": { "id": 1783289891, "lat": 39.4613106, "lon": -0.3715107, "nombre": "Granier", "tipo": "bakery" }, "geometry": { "type": "Point", "coordinates": [ -0.3715107, 39.4613106 ] } },
{ "type": "Feature", "properties": { "id": 1876921969, "lat": 39.4596389, "lon": -0.3845408, "nombre": "Cruz Blanca", "tipo": "restaurant" }, "geometry": { "type": "Point", "coordinates": [ -0.3845408, 39.4596389 ] } },
{ "type": "Feature", "properties": { "id": 1889271727, "lat": 39.4642205, "lon": -0.3464565, "nombre": "Banco Santander", "tipo": "bank" }, "geometry": { "type": "Point", "coordinates": [ -0.3464565, 39.4642205 ] } },
{ "type": "Feature", "properties": { "id": 1889271740, "lat": 39.4593067, "lon": -0.3459734, "nombre": "Caixabank", "tipo": "bank" }, "geometry": { "type": "Point", "coordinates": [ -0.3459734, 39.4593067 ] } },
{ "type": "Feature", "properties": { "id": 1891316674, "lat": 39.4657034, "lon": -0.3386515, "nombre": "Sin nombre", "tipo": "pharmacy" }, "geometry": { "type": "Point", "coordinates": [ -0.3386515, 39.4657034 ] } },
{ "type": "Feature", "properties": { "id": 1896631974, "lat": 39.4620446, "lon": -0.337906, "nombre": "Telepizza", "tipo": "fast_food" }, "geometry": { "type": "Point", "coordinates": [ -0.337906, 39.4620446 ] } },
{ "type": "Feature", "properties": { "id": 1896631980, "lat": 39.4599471, "lon": -0.3490635, "nombre": "Döner Roj Ava", "tipo": "fast_food" }, "geometry": { "type": "Point", "coordinates": [ -0.3490635, 39.4599471 ] } },
{ "type": "Feature", "properties": { "id": 1932226215, "lat": 39.4682437, "lon": -0.3759486, "nombre": "La Rollerie", "tipo": "restaurant" }, "geometry": { "type": "Point", "coordinates": [ -0.3759486, 39.4682437 ] } },
{ "type": "Feature", "properties": { "id": 1956841597, "lat": 39.481328, "lon": -0.3439037, "nombre": "Peluquería", "tipo": "hairdresser" }, "geometry": { "type": "Point", "coordinates": [ -0.3439037, 39.481328 ] } },
{ "type": "Feature", "properties": { "id": 1978745451, "lat": 39.4710078, "lon": -0.3751977, "nombre": "Puerta del Mar", "tipo": "restaurant" }, "geometry": { "type": "Point", "coordinates": [ -0.3751977, 39.4710078 ] } },
{ "type": "Feature", "properties": { "id": 1978745461, "lat": 39.472511, "lon": -0.3764676, "nombre": "Orio", "tipo": "restaurant" }, "geometry": { "type": "Point", "coordinates": [ -0.3764676, 39.472511 ] } },
{ "type": "Feature", "properties": { "id": 1981174883, "lat": 39.4872154, "lon": -0.3804847, "nombre": "Sin nombre", "tipo": "cafe" }, "geometry": { "type": "Point", "coordinates": [ -0.3804847, 39.4872154 ] } },
{ "type": "Feature", "properties": { "id": 2154987038, "lat": 39.4614529, "lon": -0.3381372, "nombre": "Restaurante La Trucha", "tipo": "restaurant" }, "geometry": { "type": "Point", "coordinates": [ -0.3381372, 39.4614529 ] } },
{ "type": "Feature", "properties": { "id": 2154987047, "lat": 39.4600508, "lon": -0.339336, "nombre": "Farmacia Jaime", "tipo": "pharmacy" }, "geometry": { "type": "Point", "coordinates": [ -0.339336, 39.4600508 ] } },
{ "type": "Feature", "properties": { "id": 2156475204, "lat": 39.5492843, "lon": -0.3898588, "nombre": "Telepizza", "tipo": "fast_food" }, "geometry": { "type": "Point", "coordinates": [ -0.3898588, 39.5492843 ] } },
{ "type": "Feature", "properties": { "id": 2156542440, "lat": 39.5435386, "lon": -0.3959528, "nombre": "Sin nombre", "tipo": "bar" }, "geometry": { "type": "Point", "coordinates": [ -0.3959528, 39.5435386 ] } },
{ "type": "Feature", "properties": { "id": 2156546344, "lat": 39.5433649, "lon": -0.3967092, "nombre": "Lean's Bar", "tipo": "bar" }, "geometry": { "type": "Point", "coordinates": [ -0.3967092, 39.5433649 ] } },
{ "type": "Feature", "properties": { "id": 2156583829, "lat": 39.5454311, "lon": -0.3913607, "nombre": "Menut", "tipo": "bar" }, "geometry": { "type": "Point", "coordinates": [ -0.3913607, 39.5454311 ] } },
{ "type": "Feature", "properties": { "id": 2156585628, "lat": 39.5448768, "lon": -0.3918785, "nombre": "Kebab", "tipo": "bar" }, "geometry": { "type": "Point", "coordinates": [ -0.3918785, 39.5448768 ] } },
{ "type": "Feature", "properties": { "id": 2156595207, "lat": 39.5425526, "lon": -0.3900392, "nombre": "Aromas", "tipo": "bar" }, "geometry": { "type": "Point", "coordinates": [ -0.3900392, 39.5425526 ] } },
{ "type": "Feature", "properties": { "id": 2156604531, "lat": 39.5445025, "lon": -0.3961888, "nombre": "Sin nombre", "tipo": "bar" }, "geometry": { "type": "Point", "coordinates": [ -0.3961888, 39.5445025 ] } },
{ "type": "Feature", "properties": { "id": 2156604622, "lat": 39.5448272, "lon": -0.3972107, "nombre": "Casa Carmen", "tipo": "bar" }, "geometry": { "type": "Point", "coordinates": [ -0.3972107, 39.5448272 ] } },
{ "type": "Feature", "properties": { "id": 2199778231, "lat": 39.4709824, "lon": -0.3724329, "nombre": "Garnacha Tinta", "tipo": "restaurant" }, "geometry": { "type": "Point", "coordinates": [ -0.3724329, 39.4709824 ] } },
{ "type": "Feature", "properties": { "id": 2199786968, "lat": 39.4695109, "lon": -0.3579554, "nombre": "Samsha", "tipo": "restaurant" }, "geometry": { "type": "Point", "coordinates": [ -0.3579554, 39.4695109 ] } },
{ "type": "Feature", "properties": { "id": 2264306798, "lat": 39.4740479, "lon": -0.3778904, "nombre": "Horno y Pasteleria Alfonso Martínez", "tipo": "bakery" }, "geometry": { "type": "Point", "coordinates": [ -0.3778904, 39.4740479 ] } },
{ "type": "Feature", "properties": { "id": 2288358266, "lat": 39.4615581, "lon": -0.3748653, "nombre": "El Rús", "tipo": "restaurant" }, "geometry": { "type": "Point", "coordinates": [ -0.3748653, 39.4615581 ] } },
{ "type": "Feature", "properties": { "id": 2288358267, "lat": 39.461055, "lon": -0.3766561, "nombre": "Horno Puerto Rico", "tipo": "bakery" }, "geometry": { "type": "Point", "coordinates": [ -0.3766561, 39.461055 ] } },
{ "type": "Feature", "properties": { "id": 2288358270, "lat": 39.4608702, "lon": -0.3765714, "nombre": "Farmacia", "tipo": "pharmacy" }, "geometry": { "type": "Point", "coordinates": [ -0.3765714, 39.4608702 ] } },
{ "type": "Feature", "properties": { "id": 2288371259, "lat": 39.4604118, "lon": -0.3745594, "nombre": "Caixabank", "tipo": "bank" }, "geometry": { "type": "Point", "coordinates": [ -0.3745594, 39.4604118 ] } },
{ "type": "Feature", "properties": { "id": 2288371265, "lat": 39.4637121, "lon": -0.3771463, "nombre": "El Bouet", "tipo": "restaurant" }, "geometry": { "type": "Point", "coordinates": [ -0.3771463, 39.4637121 ] } },
{ "type": "Feature", "properties": { "id": 2288371275, "lat": 39.4618863, "lon": -0.3741061, "nombre": "Breeza", "tipo": "restaurant" }, "geometry": { "type": "Point", "coordinates": [ -0.3741061, 39.4618863 ] } },
{ "type": "Feature", "properties": { "id": 2288371281, "lat": 39.4613771, "lon": -0.3752774, "nombre": "Cuinarte", "tipo": "restaurant" }, "geometry": { "type": "Point", "coordinates": [ -0.3752774, 39.4613771 ] } },
{ "type": "Feature", "properties": { "id": 2288371296, "lat": 39.4614762, "lon": -0.3756296, "nombre": "Sin nombre", "tipo": "fast_food" }, "geometry": { "type": "Point", "coordinates": [ -0.3756296, 39.4614762 ] } },
{ "type": "Feature", "properties": { "id": 2288376112, "lat": 39.4624723, "lon": -0.3729554, "nombre": "Sin nombre", "tipo": "bakery" }, "geometry": { "type": "Point", "coordinates": [ -0.3729554, 39.4624723 ] } },
{ "type": "Feature", "properties": { "id": 2288831820, "lat": 39.4609516, "lon": -0.3353739, "nombre": "Trébol", "tipo": "pharmacy" }, "geometry": { "type": "Point", "coordinates": [ -0.3353739, 39.4609516 ] } },
{ "type": "Feature", "properties": { "id": 2288834034, "lat": 39.4616937, "lon": -0.3357542, "nombre": "Calzados Sanz", "tipo": "clothes" }, "geometry": { "type": "Point", "coordinates": [ -0.3357542, 39.4616937 ] } },
{ "type": "Feature", "properties": { "id": 2296555339, "lat": 39.4765701, "lon": -0.3484029, "nombre": "Brutus", "tipo": "fast_food" }, "geometry": { "type": "Point", "coordinates": [ -0.3484029, 39.4765701 ] } },
{ "type": "Feature", "properties": { "id": 2296555340, "lat": 39.4765287, "lon": -0.3472549, "nombre": "Restaurante el Viñedo", "tipo": "restaurant" }, "geometry": { "type": "Point", "coordinates": [ -0.3472549, 39.4765287 ] } },
{ "type": "Feature", "properties": { "id": 2312768320, "lat": 39.5249316, "lon": -0.324691, "nombre": "Ca’ Pepico", "tipo": "restaurant" }, "geometry": { "type": "Point", "coordinates": [ -0.324691, 39.5249316 ] } },
{ "type": "Feature", "properties": { "id": 2312768367, "lat": 39.5410458, "lon": -0.3054655, "nombre": "L'Horta Nord", "tipo": "restaurant" }, "geometry": { "type": "Point", "coordinates": [ -0.3054655, 39.5410458 ] } },
{ "type": "Feature", "properties": { "id": 2327689108, "lat": 39.4740047, "lon": -0.3750782, "nombre": "Taberna de la Reina", "tipo": "bar" }, "geometry": { "type": "Point", "coordinates": [ -0.3750782, 39.4740047 ] } },
{ "type": "Feature", "properties": { "id": 2334539956, "lat": 39.474765, "lon": -0.3451702, "nombre": "Sin nombre", "tipo": "pharmacy" }, "geometry": { "type": "Point", "coordinates": [ -0.3451702, 39.474765 ] } },
{ "type": "Feature", "properties": { "id": 2334540595, "lat": 39.4733029, "lon": -0.3473056, "nombre": "Blasco Ibáñez", "tipo": "pharmacy" }, "geometry": { "type": "Point", "coordinates": [ -0.3473056, 39.4733029 ] } },
{ "type": "Feature", "properties": { "id": 2336817226, "lat": 39.4546357, "lon": -0.4048955, "nombre": "La última y nos vamos", "tipo": "restaurant" }, "geometry": { "type": "Point", "coordinates": [ -0.4048955, 39.4546357 ] } },
{ "type": "Feature", "properties": { "id": 2336819284, "lat": 39.4568061, "lon": -0.402106, "nombre": "Burger King", "tipo": "fast_food" }, "geometry": { "type": "Point", "coordinates": [ -0.402106, 39.4568061 ] } },
{ "type": "Feature", "properties": { "id": 2416947469, "lat": 39.4738985, "lon": -0.3734311, "nombre": "Marbar", "tipo": "cafe" }, "geometry": { "type": "Point", "coordinates": [ -0.3734311, 39.4738985 ] } },
{ "type": "Feature", "properties": { "id": 2418562012, "lat": 39.5433411, "lon": -0.3473565, "nombre": "87 Gin's", "tipo": "bar" }, "geometry": { "type": "Point", "coordinates": [ -0.3473565, 39.5433411 ] } },
{ "type": "Feature", "properties": { "id": 2450630766, "lat": 39.5017782, "lon": -0.3532353, "nombre": "Farmacia Josefina Velet", "tipo": "pharmacy" }, "geometry": { "type": "Point", "coordinates": [ -0.3532353, 39.5017782 ] } },
{ "type": "Feature", "properties": { "id": 2461802765, "lat": 39.5000953, "lon": -0.3548492, "nombre": "Farmacia Francisco Andújar García", "tipo": "pharmacy" }, "geometry": { "type": "Point", "coordinates": [ -0.3548492, 39.5000953 ] } },
{ "type": "Feature", "properties": { "id": 2461802766, "lat": 39.4964407, "lon": -0.3524053, "nombre": "Farmacia Francisco Piquer", "tipo": "pharmacy" }, "geometry": { "type": "Point", "coordinates": [ -0.3524053, 39.4964407 ] } },
{ "type": "Feature", "properties": { "id": 2461802767, "lat": 39.498401, "lon": -0.3513837, "nombre": "Farmacia Guadalupe Grande Aragón", "tipo": "pharmacy" }, "geometry": { "type": "Point", "coordinates": [ -0.3513837, 39.498401 ] } },
{ "type": "Feature", "properties": { "id": 2461802768, "lat": 39.4964133, "lon": -0.349216, "nombre": "Farmacia Jorge Más Martín", "tipo": "pharmacy" }, "geometry": { "type": "Point", "coordinates": [ -0.349216, 39.4964133 ] } },
{ "type": "Feature", "properties": { "id": 2461802769, "lat": 39.5090898, "lon": -0.3236223, "nombre": "Farmacia María del Mar Vilanova Amat", "tipo": "pharmacy" }, "geometry": { "type": "Point", "coordinates": [ -0.3236223, 39.5090898 ] } },
{ "type": "Feature", "properties": { "id": 2461802770, "lat": 39.500526, "lon": -0.3502395, "nombre": "Farmacia Pilar Machancoses - Balboa", "tipo": "pharmacy" }, "geometry": { "type": "Point", "coordinates": [ -0.3502395, 39.500526 ] } },
{ "type": "Feature", "properties": { "id": 2461802771, "lat": 39.487346, "lon": -0.3260704, "nombre": "Farmacia Vicente Codoñer Navarro", "tipo": "pharmacy" }, "geometry": { "type": "Point", "coordinates": [ -0.3260704, 39.487346 ] } },
{ "type": "Feature", "properties": { "id": 2475527911, "lat": 39.4679214, "lon": -0.3792412, "nombre": "BBVA", "tipo": "bank" }, "geometry": { "type": "Point", "coordinates": [ -0.3792412, 39.4679214 ] } },
{ "type": "Feature", "properties": { "id": 2475527912, "lat": 39.4677001, "lon": -0.3783999, "nombre": "Caixabank", "tipo": "bank" }, "geometry": { "type": "Point", "coordinates": [ -0.3783999, 39.4677001 ] } },
{ "type": "Feature", "properties": { "id": 2475527913, "lat": 39.4682103, "lon": -0.380385, "nombre": "Caixabank", "tipo": "bank" }, "geometry": { "type": "Point", "coordinates": [ -0.380385, 39.4682103 ] } },
{ "type": "Feature", "properties": { "id": 2475527919, "lat": 39.4677264, "lon": -0.3790905, "nombre": "Min Jiang", "tipo": "restaurant" }, "geometry": { "type": "Point", "coordinates": [ -0.3790905, 39.4677264 ] } },
{ "type": "Feature", "properties": { "id": 2475527920, "lat": 39.4685316, "lon": -0.3812678, "nombre": "Charlotte", "tipo": "restaurant" }, "geometry": { "type": "Point", "coordinates": [ -0.3812678, 39.4685316 ] } },
{ "type": "Feature", "properties": { "id": 2475527921, "lat": 39.46764, "lon": -0.3767039, "nombre": "Cortefiel", "tipo": "clothes" }, "geometry": { "type": "Point", "coordinates": [ -0.3767039, 39.46764 ] } },
{ "type": "Feature", "properties": { "id": 2475527924, "lat": 39.4680977, "lon": -0.3801137, "nombre": "Ella", "tipo": "clothes" }, "geometry": { "type": "Point", "coordinates": [ -0.3801137, 39.4680977 ] } },
{ "type": "Feature", "properties": { "id": 2475527929, "lat": 39.4700833, "lon": -0.3859904, "nombre": "Francisco Miralles", "tipo": "bakery" }, "geometry": { "type": "Point", "coordinates": [ -0.3859904, 39.4700833 ] } },
{ "type": "Feature", "properties": { "id": 2475527931, "lat": 39.4704094, "lon": -0.3844436, "nombre": "Hedra", "tipo": "clothes" }, "geometry": { "type": "Point", "coordinates": [ -0.3844436, 39.4704094 ] } },
{ "type": "Feature", "properties": { "id": 2475527934, "lat": 39.4674179, "lon": -0.3777919, "nombre": "PadThaiWok", "tipo": "restaurant" }, "geometry": { "type": "Point", "coordinates": [ -0.3777919, 39.4674179 ] } },
{ "type": "Feature", "properties": { "id": 2475527936, "lat": 39.4677772, "lon": -0.3787044, "nombre": "La tagliatella", "tipo": "restaurant" }, "geometry": { "type": "Point", "coordinates": [ -0.3787044, 39.4677772 ] } },
{ "type": "Feature", "properties": { "id": 2475527940, "lat": 39.4701017, "lon": -0.3834405, "nombre": "Malawi & Co", "tipo": "clothes" }, "geometry": { "type": "Point", "coordinates": [ -0.3834405, 39.4701017 ] } },
{ "type": "Feature", "properties": { "id": 2475527941, "lat": 39.4704053, "lon": -0.3840032, "nombre": "Mantequería Llamas Centelles", "tipo": "convenience" }, "geometry": { "type": "Point", "coordinates": [ -0.3840032, 39.4704053 ] } },
{ "type": "Feature", "properties": { "id": 2475527943, "lat": 39.4704115, "lon": -0.3845858, "nombre": "Galan's Grill", "tipo": "restaurant" }, "geometry": { "type": "Point", "coordinates": [ -0.3845858, 39.4704115 ] } },
{ "type": "Feature", "properties": { "id": 2475527950, "lat": 39.4704044, "lon": -0.3841135, "nombre": "Oh My Cut", "tipo": "hairdresser" }, "geometry": { "type": "Point", "coordinates": [ -0.3841135, 39.4704044 ] } },
{ "type": "Feature", "properties": { "id": 2475527955, "lat": 39.4703721, "lon": -0.3856803, "nombre": "Panaria", "tipo": "bakery" }, "geometry": { "type": "Point", "coordinates": [ -0.3856803, 39.4703721 ] } },
{ "type": "Feature", "properties": { "id": 2475527957, "lat": 39.4689234, "lon": -0.3818299, "nombre": "Peletería Sanchez Cano", "tipo": "clothes" }, "geometry": { "type": "Point", "coordinates": [ -0.3818299, 39.4689234 ] } },
{ "type": "Feature", "properties": { "id": 2475527976, "lat": 39.4679869, "lon": -0.3797513, "nombre": "Farmacia Boix & Boix Cosmetics", "tipo": "pharmacy" }, "geometry": { "type": "Point", "coordinates": [ -0.3797513, 39.4679869 ] } },
{ "type": "Feature", "properties": { "id": 2480349135, "lat": 39.456815, "lon": -0.3743263, "nombre": "Souca", "tipo": "restaurant" }, "geometry": { "type": "Point", "coordinates": [ -0.3743263, 39.456815 ] } },
{ "type": "Feature", "properties": { "id": 2506329532, "lat": 39.4674618, "lon": -0.3757941, "nombre": "McDonald's", "tipo": "fast_food" }, "geometry": { "type": "Point", "coordinates": [ -0.3757941, 39.4674618 ] } },
{ "type": "Feature", "properties": { "id": 2506451016, "lat": 39.469064, "lon": -0.3763102, "nombre": "Abanca", "tipo": "bank" }, "geometry": { "type": "Point", "coordinates": [ -0.3763102, 39.469064 ] } },
{ "type": "Feature", "properties": { "id": 2506451018, "lat": 39.46857, "lon": -0.3767461, "nombre": "Café Templo", "tipo": "restaurant" }, "geometry": { "type": "Point", "coordinates": [ -0.3767461, 39.46857 ] } },
{ "type": "Feature", "properties": { "id": 2506451020, "lat": 39.4690548, "lon": -0.3765173, "nombre": "Unicaja Banco", "tipo": "bank" }, "geometry": { "type": "Point", "coordinates": [ -0.3765173, 39.4690548 ] } },
{ "type": "Feature", "properties": { "id": 2506451024, "lat": 39.4679484, "lon": -0.3768399, "nombre": "Cajamar", "tipo": "bank" }, "geometry": { "type": "Point", "coordinates": [ -0.3768399, 39.4679484 ] } },
{ "type": "Feature", "properties": { "id": 2506451034, "lat": 39.4688953, "lon": -0.3755534, "nombre": "Gustore", "tipo": "restaurant" }, "geometry": { "type": "Point", "coordinates": [ -0.3755534, 39.4688953 ] } },
{ "type": "Feature", "properties": { "id": 2506451067, "lat": 39.4681777, "lon": -0.376787, "nombre": "Women'secret", "tipo": "clothes" }, "geometry": { "type": "Point", "coordinates": [ -0.376787, 39.4681777 ] } },
{ "type": "Feature", "properties": { "id": 2506470123, "lat": 39.4716558, "lon": -0.3686386, "nombre": "Azúcar y Sal", "tipo": "restaurant" }, "geometry": { "type": "Point", "coordinates": [ -0.3686386, 39.4716558 ] } },
{ "type": "Feature", "properties": { "id": 2506470126, "lat": 39.4724845, "lon": -0.3676268, "nombre": "Fuji", "tipo": "restaurant" }, "geometry": { "type": "Point", "coordinates": [ -0.3676268, 39.4724845 ] } },
{ "type": "Feature", "properties": { "id": 2506470140, "lat": 39.472666, "lon": -0.3672284, "nombre": "Sin nombre", "tipo": "hairdresser" }, "geometry": { "type": "Point", "coordinates": [ -0.3672284, 39.472666 ] } },
{ "type": "Feature", "properties": { "id": 2506470144, "lat": 39.4726475, "lon": -0.3673506, "nombre": "Panaderia Ciudadela", "tipo": "bakery" }, "geometry": { "type": "Point", "coordinates": [ -0.3673506, 39.4726475 ] } },
{ "type": "Feature", "properties": { "id": 2506470148, "lat": 39.4716496, "lon": -0.3685099, "nombre": "Panaria", "tipo": "bakery" }, "geometry": { "type": "Point", "coordinates": [ -0.3685099, 39.4716496 ] } },
{ "type": "Feature", "properties": { "id": 2506470158, "lat": 39.4716596, "lon": -0.3687289, "nombre": "Banco Santander", "tipo": "bank" }, "geometry": { "type": "Point", "coordinates": [ -0.3687289, 39.4716596 ] } },
{ "type": "Feature", "properties": { "id": 2506470168, "lat": 39.4724345, "lon": -0.3678626, "nombre": "Triodos Bank", "tipo": "bank" }, "geometry": { "type": "Point", "coordinates": [ -0.3678626, 39.4724345 ] } },
{ "type": "Feature", "properties": { "id": 2506470179, "lat": 39.4716537, "lon": -0.3683758, "nombre": "Guadalupe Llatas", "tipo": "pharmacy" }, "geometry": { "type": "Point", "coordinates": [ -0.3683758, 39.4716537 ] } },
{ "type": "Feature", "properties": { "id": 2506490476, "lat": 39.4733557, "lon": -0.3478023, "nombre": "Taco Bell", "tipo": "fast_food" }, "geometry": { "type": "Point", "coordinates": [ -0.3478023, 39.4733557 ] } },
{ "type": "Feature", "properties": { "id": 2506490477, "lat": 39.4710629, "lon": -0.3487834, "nombre": "Bodega El Labrador", "tipo": "restaurant" }, "geometry": { "type": "Point", "coordinates": [ -0.3487834, 39.4710629 ] } },
{ "type": "Feature", "properties": { "id": 2506490479, "lat": 39.4718199, "lon": -0.3484399, "nombre": "Estela", "tipo": "hairdresser" }, "geometry": { "type": "Point", "coordinates": [ -0.3484399, 39.4718199 ] } },
{ "type": "Feature", "properties": { "id": 2506490483, "lat": 39.4704899, "lon": -0.3489818, "nombre": "Horno María", "tipo": "bakery" }, "geometry": { "type": "Point", "coordinates": [ -0.3489818, 39.4704899 ] } },
{ "type": "Feature", "properties": { "id": 2506490499, "lat": 39.4731963, "lon": -0.3478893, "nombre": "Banco Sabadell", "tipo": "bank" }, "geometry": { "type": "Point", "coordinates": [ -0.3478893, 39.4731963 ] } },
{ "type": "Feature", "properties": { "id": 2506490502, "lat": 39.4704199, "lon": -0.3490105, "nombre": "Farmacia Palomares Cuéllar", "tipo": "pharmacy" }, "geometry": { "type": "Point", "coordinates": [ -0.3490105, 39.4704199 ] } },
{ "type": "Feature", "properties": { "id": 2506490504, "lat": 39.4717406, "lon": -0.3484821, "nombre": "Estilo", "tipo": "clothes" }, "geometry": { "type": "Point", "coordinates": [ -0.3484821, 39.4717406 ] } },
{ "type": "Feature", "properties": { "id": 2507404244, "lat": 39.4735262, "lon": -0.3485579, "nombre": "Burger King", "tipo": "fast_food" }, "geometry": { "type": "Point", "coordinates": [ -0.3485579, 39.4735262 ] } },
{ "type": "Feature", "properties": { "id": 2507404245, "lat": 39.4736535, "lon": -0.3485182, "nombre": "Döner Kebab Sofra", "tipo": "restaurant" }, "geometry": { "type": "Point", "coordinates": [ -0.3485182, 39.4736535 ] } },
{ "type": "Feature", "properties": { "id": 2507729772, "lat": 39.4728266, "lon": -0.3485339, "nombre": "Maybean Healthy Food", "tipo": "cafe" }, "geometry": { "type": "Point", "coordinates": [ -0.3485339, 39.4728266 ] } },
{ "type": "Feature", "properties": { "id": 2507729775, "lat": 39.4718064, "lon": -0.3489855, "nombre": "Heladería El Panete", "tipo": "restaurant" }, "geometry": { "type": "Point", "coordinates": [ -0.3489855, 39.4718064 ] } },
{ "type": "Feature", "properties": { "id": 2507729780, "lat": 39.4725144, "lon": -0.3486069, "nombre": "Sin nombre", "tipo": "hairdresser" }, "geometry": { "type": "Point", "coordinates": [ -0.3486069, 39.4725144 ] } },
{ "type": "Feature", "properties": { "id": 2507735995, "lat": 39.4705825, "lon": -0.3494817, "nombre": "Granier", "tipo": "bakery" }, "geometry": { "type": "Point", "coordinates": [ -0.3494817, 39.4705825 ] } },
{ "type": "Feature", "properties": { "id": 2507735996, "lat": 39.4702669, "lon": -0.3495882, "nombre": "Döner Kebab Amigo", "tipo": "restaurant" }, "geometry": { "type": "Point", "coordinates": [ -0.3495882, 39.4702669 ] } },
{ "type": "Feature", "properties": { "id": 2507735999, "lat": 39.470504, "lon": -0.3494832, "nombre": "TYM", "tipo": "clothes" }, "geometry": { "type": "Point", "coordinates": [ -0.3494832, 39.470504 ] } },
{ "type": "Feature", "properties": { "id": 2508172873, "lat": 39.4681864, "lon": -0.3730763, "nombre": "Stradivarius", "tipo": "clothes" }, "geometry": { "type": "Point", "coordinates": [ -0.3730763, 39.4681864 ] } },
{ "type": "Feature", "properties": { "id": 2508172900, "lat": 39.4671241, "lon": -0.3746265, "nombre": "Cafetería Bertal", "tipo": "cafe" },